{"venues":[{"id":0,"location":{"streetAddress":"5832 Rose Ways","city":"Jasentown","postalCode":"38231-9327","country":"Guam"},"pricePerNightInEUR":98.78,"rating":0.8,"capacity":1,"name":"courteous dish","albumId":0},{"id":1,"location":{"streetAddress":"67298 Bramley Close","city":"New Valentinestead","postalCode":"71472","country":"Eritrea"},"pricePerNightInEUR":20.71,"rating":1,"capacity":8,"name":"grimy availability","albumId":1},{"id":2,"location":{"streetAddress":"241 Austyn Landing","city":"San Buenaventura (Ventura)","postalCode":"42592","country":"Jamaica"},"pricePerNightInEUR":30.64,"rating":0.6,"capacity":1,"name":"definitive intellect","albumId":2},{"id":3,"location":{"streetAddress":"480 Laury Inlet","city":"Leannonfield","postalCode":"34132-5718","country":"Kiribati"},"pricePerNightInEUR":81.22,"rating":2,"capacity":8,"name":"vengeful couch","albumId":3},{"id":4,"location":{"streetAddress":"297 Smith Branch","city":"Myriamstad","postalCode":"96223-4428","country":"Philippines"},"pricePerNightInEUR":62.05,"rating":3.3,"capacity":3,"name":"charming entry","albumId":4},{"id":5,"location":{"streetAddress":"5484 7th Avenue","city":"Wyoming","postalCode":"82706","country":"Chad"},"pricePerNightInEUR":4.41,"rating":0.5,"capacity":5,"name":"ashamed corral","albumId":5},{"id":6,"location":{"streetAddress":"7414 Prospect Avenue","city":"El Cajon","postalCode":"76716-9762","country":"Bonaire, Sint Eustatius and Saba"},"pricePerNightInEUR":18.12,"rating":4.5,"capacity":9,"name":"insistent majority","albumId":6},{"id":7,"location":{"streetAddress":"978 Grove Street","city":"Osinskifurt","postalCode":"25639-0170","country":"Norfolk Island"},"pricePerNightInEUR":33.05,"rating":0.2,"capacity":9,"name":"vengeful warming","albumId":7},{"id":8,"location":{"streetAddress":"91199 Olson Place","city":"Fort Yessenia","postalCode":"93917-0462","country":"Andorra"},"pricePerNightInEUR":69.15,"rating":2.3,"capacity":3,"name":"unwilling poppy","albumId":8},{"id":9,"location":{"streetAddress":"20296 Douglas Inlet","city":"San Antonio","postalCode":"08606","country":"Saint Vincent and the Grenadines"},"pricePerNightInEUR":57.25,"rating":1.5,"capacity":8,"name":"unimportant impact","albumId":9},{"id":10,"location":{"streetAddress":"518 Bahringer Landing","city":"Bellaboro","postalCode":"43297-2537","country":"Tonga"},"pricePerNightInEUR":56.99,"rating":0.8,"capacity":7,"name":"dual formation","albumId":10},{"id":11,"location":{"streetAddress":"31115 Yundt Mission","city":"Cummingsland","postalCode":"27729","country":"Belgium"},"pricePerNightInEUR":13.33,"rating":3.1,"capacity":0,"name":"growing lobster","albumId":11},{"id":12,"location":{"streetAddress":"763 Rutherford Walks","city":"West Bret","postalCode":"80328-9732","country":"Tajikistan"},"pricePerNightInEUR":55,"rating":0.6,"capacity":7,"name":"firsthand markup","albumId":12},{"id":13,"location":{"streetAddress":"1642 McDermott Radial","city":"Denesikland","postalCode":"35756","country":"United States of America"},"pricePerNightInEUR":89.43,"rating":3.7,"capacity":0,"name":"dependent license","albumId":13},{"id":14,"location":{"streetAddress":"33109 Turcotte Ports","city":"Katrinehaven","postalCode":"75549-5773","country":"Palestine"},"pricePerNightInEUR":50.67,"rating":3.6,"capacity":2,"name":"fruitful worth","albumId":14},{"id":15,"location":{"streetAddress":"56267 Buckridge Stravenue","city":"Schusterport","postalCode":"63861-1024","country":"Turks and Caicos Islands"},"pricePerNightInEUR":11.81,"rating":0.7,"capacity":10,"name":"uncomfortable deed","albumId":15},{"id":16,"location":{"streetAddress":"91893 Trycia Heights","city":"Wehnerberg","postalCode":"69465","country":"Suriname"},"pricePerNightInEUR":56.52,"rating":2.4,"capacity":0,"name":"early populist","albumId":16},{"id":17,"location":{"streetAddress":"53531 Grace Port","city":"Lake Breana","postalCode":"85402","country":"Maldives"},"pricePerNightInEUR":27.57,"rating":4.7,"capacity":4,"name":"ignorant hamburger","albumId":17},{"id":18,"location":{"streetAddress":"140 Cross Street","city":"North Camden","postalCode":"84136","country":"India"},"pricePerNightInEUR":3.14,"rating":4,"capacity":9,"name":"short-term bourgeoisie","albumId":18},{"id":19,"location":{"streetAddress":"281 Audra Glen","city":"Greenville","postalCode":"47063-0865","country":"Lesotho"},"pricePerNightInEUR":35.99,"rating":4.1,"capacity":7,"name":"glorious archaeology","albumId":19},{"id":20,"location":{"streetAddress":"146 Leuschke Passage","city":"Wisokyville","postalCode":"06800","country":"Czechia"},"pricePerNightInEUR":34.16,"rating":0,"capacity":6,"name":"immense tune-up","albumId":20},{"id":21,"location":{"streetAddress":"57854 Morar Inlet","city":"Adellstead","postalCode":"80183","country":"Sint Maarten"},"pricePerNightInEUR":91.39,"rating":0.4,"capacity":7,"name":"front subsidy","albumId":21},{"id":22,"location":{"streetAddress":"54777 Damon Route","city":"New Ramirochester","postalCode":"21611-7033","country":"Papua New Guinea"},"pricePerNightInEUR":6.18,"rating":1.5,"capacity":2,"name":"alarmed pear","albumId":22},{"id":23,"location":{"streetAddress":"7045 Eugenia Canyon","city":"Janiyashire","postalCode":"66748","country":"Central African Republic"},"pricePerNightInEUR":7.22,"rating":1.8,"capacity":0,"name":"strict coliseum","albumId":23},{"id":24,"location":{"streetAddress":"4047 Elza Pine","city":"East Akeem","postalCode":"00938","country":"Palestine"},"pricePerNightInEUR":24.57,"rating":2.3,"capacity":3,"name":"criminal pulse","albumId":24},{"id":25,"location":{"streetAddress":"1091 Buckridge Courts","city":"Corpus Christi","postalCode":"62934","country":"Japan"},"pricePerNightInEUR":79.98,"rating":3,"capacity":5,"name":"excited edge","albumId":25},{"id":26,"location":{"streetAddress":"67871 Klocko Hills","city":"North Madisonworth","postalCode":"70826-1861","country":"Barbados"},"pricePerNightInEUR":83.2,"rating":0.9,"capacity":10,"name":"naughty lox","albumId":26},{"id":27,"location":{"streetAddress":"398 The Grove","city":"Las Vegas","postalCode":"87898-4088","country":"Lao People's Democratic Republic"},"pricePerNightInEUR":96.3,"rating":0.5,"capacity":2,"name":"naughty fund","albumId":27},{"id":28,"location":{"streetAddress":"630 Jackson Avenue","city":"North Melbaland","postalCode":"02068","country":"Lao People's Democratic Republic"},"pricePerNightInEUR":29.77,"rating":1.3,"capacity":10,"name":"questionable louse","albumId":28},{"id":29,"location":{"streetAddress":"477 Spencer Field","city":"North Toniboro","postalCode":"46454","country":"Morocco"},"pricePerNightInEUR":98.32,"rating":0.6,"capacity":8,"name":"scientific hope","albumId":29},{"id":30,"location":{"streetAddress":"813 Forest Avenue","city":"Cristtown","postalCode":"75761-6120","country":"Italy"},"pricePerNightInEUR":53.49,"rating":0.4,"capacity":7,"name":"gentle swim","albumId":30},{"id":31,"location":{"streetAddress":"4232 Ofelia Garden","city":"Harrisburg","postalCode":"02651-9040","country":"Kuwait"},"pricePerNightInEUR":95.83,"rating":4.5,"capacity":7,"name":"lazy bowling","albumId":31},{"id":32,"location":{"streetAddress":"82852 The Green","city":"North Jadefort","postalCode":"30554-2248","country":"Pitcairn Islands"},"pricePerNightInEUR":35.74,"rating":0.5,"capacity":2,"name":"rectangular charlatan","albumId":32},{"id":33,"location":{"streetAddress":"43775 Amie Light","city":"South Henri","postalCode":"17098-6646","country":"Andorra"},"pricePerNightInEUR":40.96,"rating":0.8,"capacity":7,"name":"artistic lender","albumId":33},{"id":34,"location":{"streetAddress":"688 N Poplar Street","city":"Garthbury","postalCode":"98402-7505","country":"Marshall Islands"},"pricePerNightInEUR":51.45,"rating":1.5,"capacity":7,"name":"short-term arcade","albumId":34},{"id":35,"location":{"streetAddress":"99171 Cartwright Port","city":"Pasco","postalCode":"54902","country":"Christmas Island"},"pricePerNightInEUR":92.64,"rating":2.9,"capacity":5,"name":"punctual taro","albumId":35},{"id":36,"location":{"streetAddress":"908 The Orchard","city":"North Marionchester","postalCode":"16918-5834","country":"Panama"},"pricePerNightInEUR":17.16,"rating":4.1,"capacity":5,"name":"pointless punctuation","albumId":36},{"id":37,"location":{"streetAddress":"351 W Broadway Avenue","city":"Fort Giovannistead","postalCode":"30774-6381","country":"Aruba"},"pricePerNightInEUR":33.67,"rating":1.5,"capacity":1,"name":"inferior adult","albumId":37},{"id":38,"location":{"streetAddress":"46722 Shanelle Lakes","city":"Henrychester","postalCode":"33021","country":"Canada"},"pricePerNightInEUR":80.38,"rating":0.3,"capacity":7,"name":"apt lobster","albumId":38},{"id":39,"location":{"streetAddress":"708 E 5th Street","city":"Arlington Heights","postalCode":"39667","country":"Myanmar"},"pricePerNightInEUR":59.26,"rating":4.8,"capacity":10,"name":"upset hyphenation","albumId":39},{"id":40,"location":{"streetAddress":"4011 W North Street","city":"Lake Shaunmouth","postalCode":"20964","country":"Bermuda"},"pricePerNightInEUR":15.8,"rating":0.7,"capacity":10,"name":"squiggly kick","albumId":40},{"id":41,"location":{"streetAddress":"5770 Kilback Curve","city":"Kassulketown","postalCode":"92416","country":"Suriname"},"pricePerNightInEUR":42.05,"rating":2.2,"capacity":5,"name":"worse markup","albumId":41},{"id":42,"location":{"streetAddress":"767 Hegmann Fall","city":"Shanahanside","postalCode":"50432","country":"Guam"},"pricePerNightInEUR":94.86,"rating":3.6,"capacity":6,"name":"proud meander","albumId":42},{"id":43,"location":{"streetAddress":"4251 Maritza Creek","city":"Connellychester","postalCode":"19227","country":"El Salvador"},"pricePerNightInEUR":40.91,"rating":2.5,"capacity":7,"name":"assured noon","albumId":43},{"id":44,"location":{"streetAddress":"775 Sanford Run","city":"West Rileyfurt","postalCode":"99703-5523","country":"Sint Maarten"},"pricePerNightInEUR":41.68,"rating":0.7,"capacity":1,"name":"definite airmail","albumId":44},{"id":45,"location":{"streetAddress":"58296 Joannie Estate","city":"Fort Gustavestead","postalCode":"27779","country":"Virgin Islands, British"},"pricePerNightInEUR":69.79,"rating":3.5,"capacity":2,"name":"biodegradable approach","albumId":45},{"id":46,"location":{"streetAddress":"278 Pound Lane","city":"Millieville","postalCode":"22755","country":"Morocco"},"pricePerNightInEUR":11.75,"rating":2.7,"capacity":10,"name":"great trench","albumId":46},{"id":47,"location":{"streetAddress":"72329 Meadow Close","city":"South Aileen","postalCode":"45550","country":"San Marino"},"pricePerNightInEUR":77.24,"rating":2.2,"capacity":8,"name":"nervous reward","albumId":47},{"id":48,"location":{"streetAddress":"324 Christy Walks","city":"Diegofield","postalCode":"57775-7330","country":"Christmas Island"},"pricePerNightInEUR":63.59,"rating":1,"capacity":3,"name":"natural stitcher","albumId":48},{"id":49,"location":{"streetAddress":"242 Boehm Throughway","city":"West Adam","postalCode":"14773-2209","country":"Namibia"},"pricePerNightInEUR":97.63,"rating":1.5,"capacity":8,"name":"unripe netsuke","albumId":49},{"id":50,"location":{"streetAddress":"36435 Grady Well","city":"Rauton","postalCode":"22788","country":"Qatar"},"pricePerNightInEUR":37.4,"rating":1.6,"capacity":4,"name":"black hyphenation","albumId":50},{"id":51,"location":{"streetAddress":"595 Rosa Mission","city":"West Scarlett","postalCode":"65806","country":"Uzbekistan"},"pricePerNightInEUR":22.73,"rating":4.2,"capacity":4,"name":"grumpy yogurt","albumId":51},{"id":52,"location":{"streetAddress":"72923 Treutel Lakes","city":"D'Amorefort","postalCode":"29677","country":"Sudan"},"pricePerNightInEUR":21.73,"rating":1.8,"capacity":0,"name":"superb reasoning","albumId":52},{"id":53,"location":{"streetAddress":"592 Alan Cape","city":"Woodbury","postalCode":"56733","country":"Iceland"},"pricePerNightInEUR":33.13,"rating":0.3,"capacity":7,"name":"shallow hygienic","albumId":53},{"id":54,"location":{"streetAddress":"235 Cecile Route","city":"North Maryam","postalCode":"47161-8621","country":"Belgium"},"pricePerNightInEUR":25.31,"rating":2.9,"capacity":10,"name":"prestigious fit","albumId":54},{"id":55,"location":{"streetAddress":"7589 Yolanda Cliff","city":"McCulloughfurt","postalCode":"74971-4103","country":"Gabon"},"pricePerNightInEUR":58.89,"rating":4.7,"capacity":5,"name":"impressive ribbon","albumId":55},{"id":56,"location":{"streetAddress":"1859 The Mews","city":"Lake Lukas","postalCode":"09092","country":"Mali"},"pricePerNightInEUR":98.81,"rating":1.8,"capacity":3,"name":"stained monocle","albumId":56},{"id":57,"location":{"streetAddress":"66304 Walnut Street","city":"East Rudolphshire","postalCode":"66106-1866","country":"Comoros"},"pricePerNightInEUR":76.95,"rating":1.9,"capacity":10,"name":"neat pension","albumId":57},{"id":58,"location":{"streetAddress":"9795 Lonny Ridges","city":"Wittingboro","postalCode":"49851-1729","country":"Saint Lucia"},"pricePerNightInEUR":25.86,"rating":0,"capacity":10,"name":"sunny grandson","albumId":58},{"id":59,"location":{"streetAddress":"85126 Cumberland Street","city":"Lake Christianafurt","postalCode":"18138","country":"Virgin Islands, British"},"pricePerNightInEUR":72.28,"rating":0.5,"capacity":3,"name":"hopeful nun","albumId":59},{"id":60,"location":{"streetAddress":"762 Antonette Plaza","city":"South Sadie","postalCode":"00465-0599","country":"Ecuador"},"pricePerNightInEUR":45.33,"rating":0,"capacity":5,"name":"hot formula","albumId":60},{"id":61,"location":{"streetAddress":"918 Zoie Place","city":"Erichshire","postalCode":"54194-3042","country":"Cape Verde"},"pricePerNightInEUR":75.13,"rating":3.2,"capacity":9,"name":"brisk heartache","albumId":61},{"id":62,"location":{"streetAddress":"408 Rachael Shore","city":"West Aubreyboro","postalCode":"74002-0153","country":"Ethiopia"},"pricePerNightInEUR":41.13,"rating":4.5,"capacity":8,"name":"runny kick","albumId":62},{"id":63,"location":{"streetAddress":"3197 Abagail Lock","city":"Lake Mertiehaven","postalCode":"87792-5923","country":"Jersey"},"pricePerNightInEUR":36.41,"rating":1.5,"capacity":3,"name":"hoarse status","albumId":63},{"id":64,"location":{"streetAddress":"8966 E Bridge Street","city":"Port Ofeliastead","postalCode":"33196","country":"Virgin Islands, British"},"pricePerNightInEUR":70.14,"rating":3.2,"capacity":5,"name":"impolite swordfish","albumId":64},{"id":65,"location":{"streetAddress":"76020 Vaughn Valleys","city":"Gaetanofurt","postalCode":"52240","country":"Paraguay"},"pricePerNightInEUR":9.56,"rating":2.8,"capacity":5,"name":"waterlogged petticoat","albumId":65},{"id":66,"location":{"streetAddress":"280 The Oaks","city":"Kalebville","postalCode":"24073-2133","country":"Trinidad and Tobago"},"pricePerNightInEUR":48.39,"rating":1.9,"capacity":1,"name":"nippy lifestyle","albumId":66},{"id":67,"location":{"streetAddress":"423 Alfreda Land","city":"Langworthhaven","postalCode":"84384-8102","country":"Fiji"},"pricePerNightInEUR":53.86,"rating":0.5,"capacity":8,"name":"grown vein","albumId":67},{"id":68,"location":{"streetAddress":"630 Manor Gardens","city":"Fort Josue","postalCode":"68533","country":"Rwanda"},"pricePerNightInEUR":23.2,"rating":4.5,"capacity":6,"name":"focused adult","albumId":68},{"id":69,"location":{"streetAddress":"4620 Martin Luther King Drive","city":"Christiansenland","postalCode":"77465","country":"Gabon"},"pricePerNightInEUR":15.48,"rating":4.5,"capacity":3,"name":"empty arcade","albumId":69},{"id":70,"location":{"streetAddress":"77913 W 2nd Street","city":"South Whittier","postalCode":"75877","country":"Slovenia"},"pricePerNightInEUR":18.29,"rating":0.5,"capacity":8,"name":"untried king","albumId":70},{"id":71,"location":{"streetAddress":"113 Oberbrunner Centers","city":"Kossfield","postalCode":"83951-9429","country":"Reunion"},"pricePerNightInEUR":25.86,"rating":2.5,"capacity":1,"name":"rectangular hydrocarbon","albumId":71},{"id":72,"location":{"streetAddress":"49076 Cathy Knoll","city":"West Tavaresport","postalCode":"51975-6931","country":"Tajikistan"},"pricePerNightInEUR":8.52,"rating":4.6,"capacity":3,"name":"doting decryption","albumId":72},{"id":73,"location":{"streetAddress":"651 Runolfsson Gardens","city":"West Darylberg","postalCode":"44964-8540","country":"Togo"},"pricePerNightInEUR":12.81,"rating":4.9,"capacity":0,"name":"deep release","albumId":73},{"id":74,"location":{"streetAddress":"5945 Farrell Rapids","city":"Abilene","postalCode":"46914","country":"Indonesia"},"pricePerNightInEUR":15.5,"rating":0.1,"capacity":2,"name":"unfortunate cheetah","albumId":74},{"id":75,"location":{"streetAddress":"55060 Alvera Brooks","city":"West Cristinafield","postalCode":"00850","country":"Haiti"},"pricePerNightInEUR":65.75,"rating":0.4,"capacity":6,"name":"aware meal","albumId":75},{"id":76,"location":{"streetAddress":"56312 N College Street","city":"South Claudie","postalCode":"27958-4080","country":"Ethiopia"},"pricePerNightInEUR":18.82,"rating":3.3,"capacity":10,"name":"voluminous secrecy","albumId":76},{"id":77,"location":{"streetAddress":"501 Pollich Flats","city":"West Urban","postalCode":"83304-0418","country":"Antarctica"},"pricePerNightInEUR":1.97,"rating":1.2,"capacity":7,"name":"near airmail","albumId":77},{"id":78,"location":{"streetAddress":"10052 Maurine Grove","city":"South Lillian","postalCode":"42001","country":"Pitcairn Islands"},"pricePerNightInEUR":79.7,"rating":1.7,"capacity":3,"name":"actual cake","albumId":78},{"id":79,"location":{"streetAddress":"8692 Roberts Gardens","city":"Fort Adolph","postalCode":"66218-5606","country":"Zambia"},"pricePerNightInEUR":54.26,"rating":0.6,"capacity":9,"name":"impish knitting","albumId":79},{"id":80,"location":{"streetAddress":"326 Salvador Mountain","city":"Oceanside","postalCode":"92822-1983","country":"Yemen"},"pricePerNightInEUR":71.7,"rating":1.3,"capacity":0,"name":"soggy majority","albumId":80},{"id":81,"location":{"streetAddress":"32799 Park View","city":"Devonteberg","postalCode":"98101","country":"Angola"},"pricePerNightInEUR":86.39,"rating":2.9,"capacity":6,"name":"entire bob","albumId":81},{"id":82,"location":{"streetAddress":"44133 Brekke Turnpike","city":"East Betsy","postalCode":"64187-1881","country":"Algeria"},"pricePerNightInEUR":28.57,"rating":0.8,"capacity":6,"name":"triangular seafood","albumId":82},{"id":83,"location":{"streetAddress":"9233 York Street","city":"West Fredrickhaven","postalCode":"76831","country":"Niger"},"pricePerNightInEUR":52.99,"rating":4.5,"capacity":1,"name":"poor abacus","albumId":83},{"id":84,"location":{"streetAddress":"8716 Commercial Road","city":"New Aliyahmouth","postalCode":"37685","country":"Pitcairn Islands"},"pricePerNightInEUR":58.05,"rating":4.1,"capacity":9,"name":"definite skyscraper","albumId":84},{"id":85,"location":{"streetAddress":"2524 Kade Shores","city":"O'Keefechester","postalCode":"83287-1944","country":"Mauritania"},"pricePerNightInEUR":17.64,"rating":4.3,"capacity":8,"name":"dense boyfriend","albumId":85},{"id":86,"location":{"streetAddress":"9735 Muriel Common","city":"Fredaland","postalCode":"65677-5602","country":"Norway"},"pricePerNightInEUR":92.67,"rating":1.8,"capacity":6,"name":"wonderful starboard","albumId":86},{"id":87,"location":{"streetAddress":"92532 Springfield Road","city":"West Susanna","postalCode":"36444-0779","country":"Azerbaijan"},"pricePerNightInEUR":39.71,"rating":2.3,"capacity":5,"name":"unwieldy stitcher","albumId":87},{"id":88,"location":{"streetAddress":"74774 Chester Walks","city":"Union City","postalCode":"10831-1196","country":"Ecuador"},"pricePerNightInEUR":88.29,"rating":0.8,"capacity":9,"name":"tempting curl","albumId":88},{"id":89,"location":{"streetAddress":"809 Elton Pines","city":"New Curt","postalCode":"89644-2054","country":"Brazil"},"pricePerNightInEUR":28.39,"rating":3.7,"capacity":2,"name":"descriptive hyphenation","albumId":89},{"id":90,"location":{"streetAddress":"98125 Gusikowski Plains","city":"Kansas City","postalCode":"96787-2111","country":"Panama"},"pricePerNightInEUR":39.59,"rating":3.6,"capacity":6,"name":"cloudy devastation","albumId":90},{"id":91,"location":{"streetAddress":"6855 Consuelo Skyway","city":"Arielport","postalCode":"41979","country":"Latvia"},"pricePerNightInEUR":37.81,"rating":1.9,"capacity":9,"name":"rotating surface","albumId":91},{"id":92,"location":{"streetAddress":"99714 Lime Grove","city":"Homestead","postalCode":"35363","country":"Zimbabwe"},"pricePerNightInEUR":70.25,"rating":4.1,"capacity":3,"name":"cautious zebra","albumId":92},{"id":93,"location":{"streetAddress":"824 Hansen Viaduct","city":"West Thomasfort","postalCode":"92786-5286","country":"Bulgaria"},"pricePerNightInEUR":60.43,"rating":1.8,"capacity":4,"name":"sick thorn","albumId":93},{"id":94,"location":{"streetAddress":"9704 Margot Mission","city":"Shadfurt","postalCode":"21367-6785","country":"United Kingdom"},"pricePerNightInEUR":27.38,"rating":2.9,"capacity":1,"name":"hungry backburn","albumId":94},{"id":95,"location":{"streetAddress":"130 Castle Road","city":"Boehmland","postalCode":"44597-7126","country":"Vanuatu"},"pricePerNightInEUR":76.29,"rating":2.1,"capacity":1,"name":"scary barge","albumId":95},{"id":96,"location":{"streetAddress":"93770 Hertha Heights","city":"Greenville","postalCode":"02768","country":"Niue"},"pricePerNightInEUR":59.85,"rating":0.4,"capacity":5,"name":"tasty remark","albumId":96},{"id":97,"location":{"streetAddress":"301 Heather Close","city":"Cartershire","postalCode":"34647-4833","country":"Puerto Rico"},"pricePerNightInEUR":85.69,"rating":2.1,"capacity":0,"name":"unlucky tributary","albumId":97},{"id":98,"location":{"streetAddress":"927 Volkman Villages","city":"South Destin","postalCode":"96210-1727","country":"Tunisia"},"pricePerNightInEUR":85.95,"rating":4.6,"capacity":5,"name":"monthly testimonial","albumId":98},{"id":99,"location":{"streetAddress":"89684 Witting Valleys","city":"Streichtown","postalCode":"39579","country":"Sao Tome and Principe"},"pricePerNightInEUR":53.76,"rating":2.9,"capacity":6,"name":"urban captain","albumId":99}],"venuesDetails":[{"id":0,"venuesBasicData":{"id":0,"location":{"streetAddress":"5832 Rose Ways","city":"Jasentown","postalCode":"38231-9327","country":"Guam"},"pricePerNightInEUR":98.78,"rating":0.8,"capacity":1,"name":"courteous dish","albumId":0},"description":"yippee on pfft paralyse whenever consequently mill yuck fowl furlough wrathful when thread opposite huzzah brr absent shallow thump grouper throughout because decriminalize outside whether qua uh-huh past on adolescent detain a as mediocre which via oof modulo gosh oh drat easily mmm fold fathom beneath husk before rim failing broadly deprave after madly slimy quarrelsomely bathrobe off than jealously plump aside understanding yahoo flickering incidentally aboard gee ugh pfft per plastic that towards masquerade poorly successfully boo tenderly courageously","features":["kitchen facilities","bathroom facilities","fireplace","hypoallergenic bedding","speakers","TV","WiFi","pet friendly","parking","lake or mountains nearby"],"sleepingDetails":{"maxCapacity":1,"amountOfBeds":0.5,"extraDetails":""},"checkInHourPM":21,"checkOutHourAM":10,"distanceFromCityCenterInKM":10,"contactDetails":{"phone":"+16733529595","email":"Adelle69@hotmail.com"},"socialMediaLinks":{"fb":"www.facebook.com","instagram":"www.instagram.com","twitter":"www.twitter.com","website":"www.google.com"}},{"id":1,"venuesBasicData":{"id":1,"location":{"streetAddress":"67298 Bramley Close","city":"New Valentinestead","postalCode":"71472","country":"Eritrea"},"pricePerNightInEUR":20.71,"rating":1,"capacity":8,"name":"grimy availability","albumId":1},"description":"splendid instead recent cap yippee tomb till disloyal capitalize cauliflower jam-packed deeply thoughtfully greedily upon monocle wetly christen liberalize doubter mmm after zowie vice slipper though metallic doubtfully quadruple team splosh outfox recklessly cinch indeed thick unless pfft beyond within drat kiddingly pivot if underneath ill-fated angrily pfft fondly slink mortally gripper amidst uh-huh but untimely round spice swat husband um eek fund furthermore teeming earth sunbathe until focalise frantically till intermesh ew upliftingly gripping watery scruple expensive beloved boo","features":["kitchen facilities","bathroom facilities","fireplace","hypoallergenic bedding","speakers","TV","WiFi","pet friendly","parking","lake or mountains nearby"],"sleepingDetails":{"maxCapacity":8,"amountOfBeds":4,"extraDetails":"mid each"},"checkInHourPM":22,"checkOutHourAM":9,"distanceFromCityCenterInKM":8,"contactDetails":{"phone":"+15979606461","email":"Mable_Deckow@gmail.com"},"socialMediaLinks":{"fb":"www.facebook.com","instagram":"www.instagram.com","twitter":"www.twitter.com","website":"www.google.com"}},{"id":2,"venuesBasicData":{"id":2,"location":{"streetAddress":"241 Austyn Landing","city":"San Buenaventura (Ventura)","postalCode":"42592","country":"Jamaica"},"pricePerNightInEUR":30.64,"rating":0.6,"capacity":1,"name":"definitive intellect","albumId":2},"description":"aw chairperson than indeed whose voluntarily coaxingly often moisten aha yowza funny qua silk yuck lamp minus reorient above aw miskey oblong schnitzel plagiarise garrote grubby finally decode plus indeed beside even ugh up through tinted afore till who till reborn gigantic stabilise tiny midst than obedience that what viciously clonk because woot swiftly quaff frizzy wildly righteously hm troubled along peter pepper amid tattered hm onto vice gloss an duh devastation emphasize key velvety miserably terribly monthly cake inferior","features":["kitchen facilities","bathroom facilities","fireplace","hypoallergenic bedding","speakers","TV","WiFi","pet friendly","parking","lake or mountains nearby"],"sleepingDetails":{"maxCapacity":1,"amountOfBeds":0.5,"extraDetails":"preregister ah er yowza"},"checkInHourPM":21,"checkOutHourAM":9,"distanceFromCityCenterInKM":7.5,"contactDetails":{"phone":"+14947171115","email":"Vickie_Upton-Vandervort@gmail.com"},"socialMediaLinks":{"fb":"www.facebook.com","instagram":"www.instagram.com","twitter":"www.twitter.com","website":"www.google.com"}},{"id":3,"venuesBasicData":{"id":3,"location":{"streetAddress":"480 Laury Inlet","city":"Leannonfield","postalCode":"34132-5718","country":"Kiribati"},"pricePerNightInEUR":81.22,"rating":2,"capacity":8,"name":"vengeful couch","albumId":3},"description":"hidden fussy yum pupil suspiciously sesame window sniff until ah tapioca after collaborate gah enormously issue closely longingly joshingly so bell preheat once vice citizen absent stitcher now careless near proofread wedge crushing square almost natural aw seemingly why last at over near patiently fully degenerate ugh curse ruin rigid times geez ouch indeed anti lumpy but ouch ah unless monthly considering per watery settle the phew comb as dismal uh-huh curse supplier versus detain doodle knickers schedule adventurously teeming","features":["kitchen facilities","bathroom facilities","fireplace","hypoallergenic bedding","speakers","TV","WiFi","pet friendly","parking","lake or mountains nearby"],"sleepingDetails":{"maxCapacity":8,"amountOfBeds":4,"extraDetails":"ferret unexpectedly vein opposite near"},"checkInHourPM":15,"checkOutHourAM":11,"distanceFromCityCenterInKM":4.5,"contactDetails":{"phone":"+17066674867","email":"Michel44@gmail.com"},"socialMediaLinks":{"fb":"www.facebook.com","instagram":"www.instagram.com","twitter":"www.twitter.com","website":"www.google.com"}},{"id":4,"venuesBasicData":{"id":4,"location":{"streetAddress":"297 Smith Branch","city":"Myriamstad","postalCode":"96223-4428","country":"Philippines"},"pricePerNightInEUR":62.05,"rating":3.3,"capacity":3,"name":"charming entry","albumId":4},"description":"quiet yowza pro attraction diligently reach or procrastinate reluctantly electric enthusiastically opposite thin excluding triumphantly infatuated shell unfortunately emphasise times never intently mount except barring from often conclude oof diligently boo sweatshop too seriously sore gee hmph scowl forecast trustworthy across forenenst phooey phew gah granny supposing yahoo uh-huh monthly instead spectacles bliss drat incidentally after atrium doubtfully hence hence um in loaf warmhearted grim shakily bran madly brush ah huzzah incidentally times serve phew illiterate drum pfft apud synthesise","features":["kitchen facilities","bathroom facilities","fireplace","hypoallergenic bedding","speakers","TV","WiFi","pet friendly","parking","lake or mountains nearby"],"sleepingDetails":{"maxCapacity":3,"amountOfBeds":1.5,"extraDetails":"which liberalize finally but shameful"},"checkInHourPM":18,"checkOutHourAM":12,"distanceFromCityCenterInKM":6.5,"contactDetails":{"phone":"+16875068159","email":"Dameon_Rau@hotmail.com"},"socialMediaLinks":{"fb":"www.facebook.com","instagram":"www.instagram.com","twitter":"www.twitter.com","website":"www.google.com"}},{"id":5,"venuesBasicData":{"id":5,"location":{"streetAddress":"5484 7th Avenue","city":"Wyoming","postalCode":"82706","country":"Chad"},"pricePerNightInEUR":4.41,"rating":0.5,"capacity":5,"name":"ashamed corral","albumId":5},"description":"aged around toward satirize whoa colon instantly forgery provided meanwhile huff orchestrate haircut but toward an drat yesterday recede emotional eek coaxingly ick considering thoroughly youthfully barring incidentally into possession tromp mooch interestingly where abaft bouncy tenderly furthermore pfft geez trusty reassuringly even ghost squirm madly birth oh what yippee which foolishly as boo whose hastily colonialism stack sometimes upside-down even menacing ribbon direct promptly frozen duh highly yuck dependency custom eminent blah atop unripe scaly buzzing atrium cauliflower though","features":["kitchen facilities","bathroom facilities","fireplace","hypoallergenic bedding","speakers","TV","WiFi","pet friendly","parking","lake or mountains nearby"],"sleepingDetails":{"maxCapacity":5,"amountOfBeds":2.5,"extraDetails":"adviser"},"checkInHourPM":17,"checkOutHourAM":10,"distanceFromCityCenterInKM":4,"contactDetails":{"phone":"+17215576138","email":"Isom_Grimes91@gmail.com"},"socialMediaLinks":{"fb":"www.facebook.com","instagram":"www.instagram.com","twitter":"www.twitter.com","website":"www.google.com"}},{"id":6,"venuesBasicData":{"id":6,"location":{"streetAddress":"7414 Prospect Avenue","city":"El Cajon","postalCode":"76716-9762","country":"Bonaire, Sint Eustatius and Saba"},"pricePerNightInEUR":18.12,"rating":4.5,"capacity":9,"name":"insistent majority","albumId":6},"description":"drat term since perp nocturnal yum indeed garrote zowie confused purse colorless sedately by halt until massage acknowledge incline someplace hippodrome hence dead which well-groomed onset offset eulogise neaten fooey jury ameliorate in psst around ajar throughout exotic sport ingratiate besides whoa cannon often opposite next ew phooey lest tenderly funny yet to modulo clinch meh anti boo powerfully yuck slink pish sticky gloss annually usefully edible colossal newsstand catch meh aw oh juggernaut optimal unbalance before squiggly consequently phrase","features":["kitchen facilities","bathroom facilities","fireplace","hypoallergenic bedding","speakers","TV","WiFi","pet friendly","parking","lake or mountains nearby"],"sleepingDetails":{"maxCapacity":9,"amountOfBeds":4.5,"extraDetails":"rebuke acquire inspect than"},"checkInHourPM":23,"checkOutHourAM":11,"distanceFromCityCenterInKM":7.5,"contactDetails":{"phone":"+16328275548","email":"Darrick_Ebert@hotmail.com"},"socialMediaLinks":{"fb":"www.facebook.com","instagram":"www.instagram.com","twitter":"www.twitter.com","website":"www.google.com"}},{"id":7,"venuesBasicData":{"id":7,"location":{"streetAddress":"978 Grove Street","city":"Osinskifurt","postalCode":"25639-0170","country":"Norfolk Island"},"pricePerNightInEUR":33.05,"rating":0.2,"capacity":9,"name":"vengeful warming","albumId":7},"description":"openly within sedately oddball eek which burly considering uncommon plugin traffic lightly frank pish ah plain subexpression successfully up blaring swiftly till abnormally communicate presume pale hubris live gleefully boohoo patiently often fuzzy gee jealously or unearth yippee upbeat floss puny yearly until unpleasant westernise putrefy zen brightly jet um throughout hmph underneath knitting tedious furthermore congregate homely partridge gah bah infatuated aside duh toward geez boo skeletal accidentally until range interestingly queasily closely since likewise attribute barring vanadyl grandiose","features":["kitchen facilities","bathroom facilities","fireplace","hypoallergenic bedding","speakers","TV","WiFi","pet friendly","parking","lake or mountains nearby"],"sleepingDetails":{"maxCapacity":9,"amountOfBeds":4.5,"extraDetails":"wilt gee"},"checkInHourPM":21,"checkOutHourAM":12,"distanceFromCityCenterInKM":7.5,"contactDetails":{"phone":"+19107056963","email":"Wendell_Streich27@hotmail.com"},"socialMediaLinks":{"fb":"www.facebook.com","instagram":"www.instagram.com","twitter":"www.twitter.com","website":"www.google.com"}},{"id":8,"venuesBasicData":{"id":8,"location":{"streetAddress":"91199 Olson Place","city":"Fort Yessenia","postalCode":"93917-0462","country":"Andorra"},"pricePerNightInEUR":69.15,"rating":2.3,"capacity":3,"name":"unwilling poppy","albumId":8},"description":"puny geez evenly witty intelligent throughout drat annual meanwhile gracefully bump consequently via blacken ha decode wire as across striking lest meanwhile calculus silently what for oh beautifully proofread mismatch illiterate alongside accredit likewise why quarrel however selfish tomorrow excepting neaten politely instead rundown sharply like until sonata promptly aw oil yum oh unless furthermore thankfully amidst meaty hm secret teriyaki yahoo staid emphasise ruddy profane positively pertain ew since snoopy mill upliftingly yearly round illusion incidentally handsome ravage glaring","features":["kitchen facilities","bathroom facilities","fireplace","hypoallergenic bedding","speakers","TV","WiFi","pet friendly","parking","lake or mountains nearby"],"sleepingDetails":{"maxCapacity":3,"amountOfBeds":1.5,"extraDetails":"gee safely overburden morning meanwhile"},"checkInHourPM":21,"checkOutHourAM":9,"distanceFromCityCenterInKM":1,"contactDetails":{"phone":"+15528040517","email":"Pinkie25@yahoo.com"},"socialMediaLinks":{"fb":"www.facebook.com","instagram":"www.instagram.com","twitter":"www.twitter.com","website":"www.google.com"}},{"id":9,"venuesBasicData":{"id":9,"location":{"streetAddress":"20296 Douglas Inlet","city":"San Antonio","postalCode":"08606","country":"Saint Vincent and the Grenadines"},"pricePerNightInEUR":57.25,"rating":1.5,"capacity":8,"name":"unimportant impact","albumId":9},"description":"alert nephew ah sniveling however whether past large foolishly or frightfully not goodwill truthfully procurement boastfully around provided whose brr rag override consign outrun ravioli excess sedately internalize overtrain patiently great towards shyly rudely thin remark hyena duffel before solution jaggedly yum colorful cassava gee innovation skeletal ew whereas ew greatly snappy blah poor throughout tenant besides provided eternity hourly croon sashay gadzooks afore unless hole psst blue clavicle afore yum below fencing red completion attraction about ruin consequently publicity","features":["kitchen facilities","bathroom facilities","fireplace","hypoallergenic bedding","speakers","TV","WiFi","pet friendly","parking","lake or mountains nearby"],"sleepingDetails":{"maxCapacity":8,"amountOfBeds":4,"extraDetails":"fathom"},"checkInHourPM":23,"checkOutHourAM":11,"distanceFromCityCenterInKM":4.5,"contactDetails":{"phone":"+18673472961","email":"Camryn.Kilback84@hotmail.com"},"socialMediaLinks":{"fb":"www.facebook.com","instagram":"www.instagram.com","twitter":"www.twitter.com","website":"www.google.com"}},{"id":10,"venuesBasicData":{"id":10,"location":{"streetAddress":"518 Bahringer Landing","city":"Bellaboro","postalCode":"43297-2537","country":"Tonga"},"pricePerNightInEUR":56.99,"rating":0.8,"capacity":7,"name":"dual formation","albumId":10},"description":"deep suitcase how wetly excluding amongst upbeat or softly questioningly putrefy now spice phew unimpressively grave aha frantically circumnavigate jaywalk shyly typeface negotiation overcharge t-shirt giant so nearly agile singe edible far-off lest aboard midst impeccable about longboat ew fondly sticky without who yahoo er profane stuff boldly sedately nor ideal whereas tenant gently provision graduate intellect seldom hourly gee awkwardly while incidentally whoa scope extent ack shiny exactly if whether what ugh um overconfidently apropos beside ouch till until","features":["kitchen facilities","bathroom facilities","fireplace","hypoallergenic bedding","speakers","TV","WiFi","pet friendly","parking","lake or mountains nearby"],"sleepingDetails":{"maxCapacity":7,"amountOfBeds":3.5,"extraDetails":"who evenly"},"checkInHourPM":15,"checkOutHourAM":10,"distanceFromCityCenterInKM":8,"contactDetails":{"phone":"+15395826745","email":"Prudence.Dare@yahoo.com"},"socialMediaLinks":{"fb":"www.facebook.com","instagram":"www.instagram.com","twitter":"www.twitter.com","website":"www.google.com"}},{"id":11,"venuesBasicData":{"id":11,"location":{"streetAddress":"31115 Yundt Mission","city":"Cummingsland","postalCode":"27729","country":"Belgium"},"pricePerNightInEUR":13.33,"rating":3.1,"capacity":0,"name":"growing lobster","albumId":11},"description":"wherever bitterly ouch book instead except woot pish clear stage majestically indeed cautiously unibody deliberately role haul daily geez petty when utterly pish fooey minus pitiful ride abseil regular cheerful hundred readjust weakly packaging than private humor lest commodity mmm mmm ajar modulo optimistically throughout nippy merrily soybean pish while mysterious rebuild whether uh-huh permafrost till openly next address cuckoo stupendous longboat accidentally dishonor intrepid geez but quaintly lazily around major officially mostly blah as junior continually daddy sedately custom","features":["kitchen facilities","bathroom facilities","fireplace","hypoallergenic bedding","speakers","TV","WiFi","pet friendly","parking","lake or mountains nearby"],"sleepingDetails":{"maxCapacity":0,"amountOfBeds":0,"extraDetails":"to shaft nervously soup"},"checkInHourPM":18,"checkOutHourAM":11,"distanceFromCityCenterInKM":5,"contactDetails":{"phone":"+15737153912","email":"Jaquan.Rohan@yahoo.com"},"socialMediaLinks":{"fb":"www.facebook.com","instagram":"www.instagram.com","twitter":"www.twitter.com","website":"www.google.com"}},{"id":12,"venuesBasicData":{"id":12,"location":{"streetAddress":"763 Rutherford Walks","city":"West Bret","postalCode":"80328-9732","country":"Tajikistan"},"pricePerNightInEUR":55,"rating":0.6,"capacity":7,"name":"firsthand markup","albumId":12},"description":"boldly near ill-fated hmph kookily when warp tankful plus after presell suspiciously than delight psst supposing even hunt overconfidently operating unimpressively velvety pish yahoo why before gadzooks optimistically into less up fort aw oily cellar ugh stump valuable advancement abseil quicker offend ferociously mortally hence actual against toward object recede well-off lest shakily portray ugh through precedent although lack geez towards furiously near aboard boo while righteously jump misspend till nippy whoa through piglet natural coincide ha woot responsible yum","features":["kitchen facilities","bathroom facilities","fireplace","hypoallergenic bedding","speakers","TV","WiFi","pet friendly","parking","lake or mountains nearby"],"sleepingDetails":{"maxCapacity":7,"amountOfBeds":3.5,"extraDetails":""},"checkInHourPM":15,"checkOutHourAM":9,"distanceFromCityCenterInKM":4.5,"contactDetails":{"phone":"+12934040207","email":"Dangelo.Hegmann97@hotmail.com"},"socialMediaLinks":{"fb":"www.facebook.com","instagram":"www.instagram.com","twitter":"www.twitter.com","website":"www.google.com"}},{"id":13,"venuesBasicData":{"id":13,"location":{"streetAddress":"1642 McDermott Radial","city":"Denesikland","postalCode":"35756","country":"United States of America"},"pricePerNightInEUR":89.43,"rating":3.7,"capacity":0,"name":"dependent license","albumId":13},"description":"rarely phooey convection provided tidy concerning athwart travel which righteously neglected ah provided only colorless hairy admonish eek why never whether polite ugly ah about once alongside orient toady across geez pfft illiterate uncover because when imagineer behind thoroughly yum brr cricket bah perky irritably mallard filter provided govern cutover lobster meager promise beyond rekindle scrape hm what apprehensive cheetah needily wherever accidentally midst until absentmindedly concentration per story hence phew rural whether besides pish aboard supposing finally schedule lest","features":["kitchen facilities","bathroom facilities","fireplace","hypoallergenic bedding","speakers","TV","WiFi","pet friendly","parking","lake or mountains nearby"],"sleepingDetails":{"maxCapacity":0,"amountOfBeds":0,"extraDetails":""},"checkInHourPM":19,"checkOutHourAM":9,"distanceFromCityCenterInKM":1.5,"contactDetails":{"phone":"+15877856781","email":"Dane48@hotmail.com"},"socialMediaLinks":{"fb":"www.facebook.com","instagram":"www.instagram.com","twitter":"www.twitter.com","website":"www.google.com"}},{"id":14,"venuesBasicData":{"id":14,"location":{"streetAddress":"33109 Turcotte Ports","city":"Katrinehaven","postalCode":"75549-5773","country":"Palestine"},"pricePerNightInEUR":50.67,"rating":3.6,"capacity":2,"name":"fruitful worth","albumId":14},"description":"nicely only busily times waterlogged nor bludgeon so baggy torn duh lady unless towards connect hmph aside calmly ew soon phew gosh reclassify complicated pfft besides and towards cook rubbery finally key indeed inveigle exacerbate merrily circa courageously gadzooks bonnet a completion tinted of nippy request colour blah coaxingly wherever sock why neaten delightfully after wilted optimistically speedily break which ouch oh rapidly austere ah noted accompanist vainly leading productive boohoo including circa rebuff or boohoo gah meaningfully aha below","features":["kitchen facilities","bathroom facilities","fireplace","hypoallergenic bedding","speakers","TV","WiFi","pet friendly","parking","lake or mountains nearby"],"sleepingDetails":{"maxCapacity":2,"amountOfBeds":1,"extraDetails":"astride opera gigantic annually"},"checkInHourPM":22,"checkOutHourAM":9,"distanceFromCityCenterInKM":1.5,"contactDetails":{"phone":"+18472916339","email":"Edwina86@hotmail.com"},"socialMediaLinks":{"fb":"www.facebook.com","instagram":"www.instagram.com","twitter":"www.twitter.com","website":"www.google.com"}},{"id":15,"venuesBasicData":{"id":15,"location":{"streetAddress":"56267 Buckridge Stravenue","city":"Schusterport","postalCode":"63861-1024","country":"Turks and Caicos Islands"},"pricePerNightInEUR":11.81,"rating":0.7,"capacity":10,"name":"uncomfortable deed","albumId":15},"description":"arbitrate shiny wire though which cow acquaintance showy squid unwelcome as reconsideration save unfit bravely playfully courageously although essence off miscalculate breakable psst harvest haircut hmph true floss dutiful meh wildly remarkable yesterday limited instead providence barring brr impassioned helpless fall wherever comestible blaring yum quintessential including verbally utterly yum roundabout motionless pro excluding zowie how bran not verbally unsteady considerate unlined disgorge failing indeed tightly official babushka afore detain quarterly scarily as augment gosh conceptualize and whenever till eek","features":["kitchen facilities","bathroom facilities","fireplace","hypoallergenic bedding","speakers","TV","WiFi","pet friendly","parking","lake or mountains nearby"],"sleepingDetails":{"maxCapacity":10,"amountOfBeds":5,"extraDetails":""},"checkInHourPM":17,"checkOutHourAM":10,"distanceFromCityCenterInKM":0,"contactDetails":{"phone":"+18213202661","email":"Paolo_Schaefer@yahoo.com"},"socialMediaLinks":{"fb":"www.facebook.com","instagram":"www.instagram.com","twitter":"www.twitter.com","website":"www.google.com"}},{"id":16,"venuesBasicData":{"id":16,"location":{"streetAddress":"91893 Trycia Heights","city":"Wehnerberg","postalCode":"69465","country":"Suriname"},"pricePerNightInEUR":56.52,"rating":2.4,"capacity":0,"name":"early populist","albumId":16},"description":"within via tough unnaturally longingly jaywalk developing meanwhile yowza eek almost divine during lowball where mixture yuck next validity questionably yahoo yearningly once tune overtrain and youthfully polished whopping dim at although nab uselessly wherever including um reservation that whoever which wombat determined cheerfully lest boldly surge how twist but wise whose whoever accessorise aside commandeer sushi till impressive opposite convalesce gastropod glisten bend alongside out circa silver teammate completion rebel vet into toward splash redraw observe oh descent hypothesise","features":["kitchen facilities","bathroom facilities","fireplace","hypoallergenic bedding","speakers","TV","WiFi","pet friendly","parking","lake or mountains nearby"],"sleepingDetails":{"maxCapacity":0,"amountOfBeds":0,"extraDetails":"tighten geez bravely unkempt likewise"},"checkInHourPM":22,"checkOutHourAM":11,"distanceFromCityCenterInKM":8.5,"contactDetails":{"phone":"+17583522724","email":"Raina_Bode@gmail.com"},"socialMediaLinks":{"fb":"www.facebook.com","instagram":"www.instagram.com","twitter":"www.twitter.com","website":"www.google.com"}},{"id":17,"venuesBasicData":{"id":17,"location":{"streetAddress":"53531 Grace Port","city":"Lake Breana","postalCode":"85402","country":"Maldives"},"pricePerNightInEUR":27.57,"rating":4.7,"capacity":4,"name":"ignorant hamburger","albumId":17},"description":"chip excitable instead whether weighty excluding yahoo more amidst rarely lest absent lazily submissive aside than throughout hence boohoo import gosh fooey that ignite screw spear sans lack antelope meanwhile row yahoo yippee or drat too besides underplay nervously our instantly nor eek mmm meager rapid but behind at limply uh-huh alligator packaging vain fooey sneak anenst on likewise jubilant hornet frightened poorly ouch blah lest beyond lox geez dissemble inasmuch crocodile powerful haversack vivaciously accompany likewise lawmaker off among","features":["kitchen facilities","bathroom facilities","fireplace","hypoallergenic bedding","speakers","TV","WiFi","pet friendly","parking","lake or mountains nearby"],"sleepingDetails":{"maxCapacity":4,"amountOfBeds":2,"extraDetails":"kettledrum responsibility"},"checkInHourPM":16,"checkOutHourAM":11,"distanceFromCityCenterInKM":8,"contactDetails":{"phone":"+19647466095","email":"Leon58@hotmail.com"},"socialMediaLinks":{"fb":"www.facebook.com","instagram":"www.instagram.com","twitter":"www.twitter.com","website":"www.google.com"}},{"id":18,"venuesBasicData":{"id":18,"location":{"streetAddress":"140 Cross Street","city":"North Camden","postalCode":"84136","country":"India"},"pricePerNightInEUR":3.14,"rating":4,"capacity":9,"name":"short-term bourgeoisie","albumId":18},"description":"regarding incidentally whenever self-reliant biodegrade furthermore geez reassuringly amongst however lonely how starch hurtful eyebrow strong zowie always after gee heavenly gadzooks practical optimistically lest tune ugh aged clearly edge er meh providence ascribe considering operating who proliferate now astride valuable as whisper jellyfish via thunderbolt noisily unnecessarily but astride gadzooks fooey muted whenever gadzooks ha moor sun ice-cream carefree perfectly tragic expansion to meanwhile whenever yet precedent zowie ugh excluding affectionate duh whenever challenge to sleepily zowie hungrily ick","features":["kitchen facilities","bathroom facilities","fireplace","hypoallergenic bedding","speakers","TV","WiFi","pet friendly","parking","lake or mountains nearby"],"sleepingDetails":{"maxCapacity":9,"amountOfBeds":4.5,"extraDetails":"tomatillo"},"checkInHourPM":15,"checkOutHourAM":9,"distanceFromCityCenterInKM":5,"contactDetails":{"phone":"+18125700621","email":"Kaela90@yahoo.com"},"socialMediaLinks":{"fb":"www.facebook.com","instagram":"www.instagram.com","twitter":"www.twitter.com","website":"www.google.com"}},{"id":19,"venuesBasicData":{"id":19,"location":{"streetAddress":"281 Audra Glen","city":"Greenville","postalCode":"47063-0865","country":"Lesotho"},"pricePerNightInEUR":35.99,"rating":4.1,"capacity":7,"name":"glorious archaeology","albumId":19},"description":"dimly by instance when sightseeing woot given yieldingly gah around radiant tool that norm ew gerbil cake gerbil gah which painfully fatal scale um lest before thick scare bah than joyously dandelion often tut worth fooey claw bravely waver bright graceful kissingly eek pish limply morbidity now clean tedious internalize sit circa questioningly whoever superior helpless while flight eek whoever gust wrongly minty vain convection loose blindly mould yellowish replacement reclassify mid as happy-go-lucky verify bug yieldingly aching and furthermore","features":["kitchen facilities","bathroom facilities","fireplace","hypoallergenic bedding","speakers","TV","WiFi","pet friendly","parking","lake or mountains nearby"],"sleepingDetails":{"maxCapacity":7,"amountOfBeds":3.5,"extraDetails":"hovercraft versus"},"checkInHourPM":20,"checkOutHourAM":10,"distanceFromCityCenterInKM":1,"contactDetails":{"phone":"+19376463318","email":"Dixie25@gmail.com"},"socialMediaLinks":{"fb":"www.facebook.com","instagram":"www.instagram.com","twitter":"www.twitter.com","website":"www.google.com"}},{"id":20,"venuesBasicData":{"id":20,"location":{"streetAddress":"146 Leuschke Passage","city":"Wisokyville","postalCode":"06800","country":"Czechia"},"pricePerNightInEUR":34.16,"rating":0,"capacity":6,"name":"immense tune-up","albumId":20},"description":"or perky quit husky ultimately enthusiastically yearly duh vice concerning brr yet glittering save tightly whether parsnip eek outdo pace lean supposing chapel amid french worst fooey delightfully blaring upside-down cardboard cheerfully amazing ponder soft elderly ferret for sand triumphantly longingly palate inasmuch likewise once sans times proselytise although gah hm that sheepishly plain ack bah via which obscure quietly times hydrant up yum only before norm ick even inside within hence or accurate grandpa truly competent since crank lively","features":["kitchen facilities","bathroom facilities","fireplace","hypoallergenic bedding","speakers","TV","WiFi","pet friendly","parking","lake or mountains nearby"],"sleepingDetails":{"maxCapacity":6,"amountOfBeds":3,"extraDetails":"festival yuck nor cow"},"checkInHourPM":15,"checkOutHourAM":11,"distanceFromCityCenterInKM":5,"contactDetails":{"phone":"+13504830277","email":"Caitlyn.Cole@hotmail.com"},"socialMediaLinks":{"fb":"www.facebook.com","instagram":"www.instagram.com","twitter":"www.twitter.com","website":"www.google.com"}},{"id":21,"venuesBasicData":{"id":21,"location":{"streetAddress":"57854 Morar Inlet","city":"Adellstead","postalCode":"80183","country":"Sint Maarten"},"pricePerNightInEUR":91.39,"rating":0.4,"capacity":7,"name":"front subsidy","albumId":21},"description":"deer with but castanet infamous list shakily following until stable vestment accentuate orderly tentacle over over obnoxiously quarterly miserably boo delectable fairly conservation remark mean upwardly vengeful ugh scarper license innovate until yuck than chairperson zowie step barring aircraft decide ascertain psst brr ew boss illiterate rosemary atop ouch unlearn hutch provided how qua cutover when upwardly entire near which carefully venture rule amazing acidic regarding wrong thoroughly faithfully willfully aw short especially avalanche that atop meh gosh supposing fatally","features":["kitchen facilities","bathroom facilities","fireplace","hypoallergenic bedding","speakers","TV","WiFi","pet friendly","parking","lake or mountains nearby"],"sleepingDetails":{"maxCapacity":7,"amountOfBeds":3.5,"extraDetails":"crossly gee"},"checkInHourPM":19,"checkOutHourAM":12,"distanceFromCityCenterInKM":5,"contactDetails":{"phone":"+15967714598","email":"Wilton.Erdman@hotmail.com"},"socialMediaLinks":{"fb":"www.facebook.com","instagram":"www.instagram.com","twitter":"www.twitter.com","website":"www.google.com"}},{"id":22,"venuesBasicData":{"id":22,"location":{"streetAddress":"54777 Damon Route","city":"New Ramirochester","postalCode":"21611-7033","country":"Papua New Guinea"},"pricePerNightInEUR":6.18,"rating":1.5,"capacity":2,"name":"alarmed pear","albumId":22},"description":"hmph nor bah interestingly savour snow not upliftingly bah which greedily worth meh of overconfidently knowingly yuck geez arcade knowledgeably jury hunger structure after merrily shrilly daily fiddle notarize joint impassioned general into until yowza underneath even yieldingly but scenario ah if gifted like woot next unless perfectly anti fervently indeed chairperson apud because below fiercely furthermore duh gadzooks garage after above agreement gosh grim once pish extremely bludgeon nor nudge mmm only if annually because overcook though shipper desecrate","features":["kitchen facilities","bathroom facilities","fireplace","hypoallergenic bedding","speakers","TV","WiFi","pet friendly","parking","lake or mountains nearby"],"sleepingDetails":{"maxCapacity":2,"amountOfBeds":1,"extraDetails":"spirited unbearably"},"checkInHourPM":16,"checkOutHourAM":10,"distanceFromCityCenterInKM":5,"contactDetails":{"phone":"+15179930285","email":"Neoma14@hotmail.com"},"socialMediaLinks":{"fb":"www.facebook.com","instagram":"www.instagram.com","twitter":"www.twitter.com","website":"www.google.com"}},{"id":23,"venuesBasicData":{"id":23,"location":{"streetAddress":"7045 Eugenia Canyon","city":"Janiyashire","postalCode":"66748","country":"Central African Republic"},"pricePerNightInEUR":7.22,"rating":1.8,"capacity":0,"name":"strict coliseum","albumId":23},"description":"substantial accompany unrealistic unabashedly nudge splosh beep although hunt annual and judgementally deeply to as homeschool after gosh statement yowza relative sleepily beyond lively safely subdued whose lest whether near catalog aggressive heavenly blindly carefully absent properly elegant save fully pale e-mail ski whenever via duh character or awkwardly woot unnaturally pale sternly quit archaeology silent along terribly bar disposer as burgeon yet fumigate once whether whoever conservation supposing tackle terraform that fluctuate upside-down now perfumed gee hassle how perspire","features":["kitchen facilities","bathroom facilities","fireplace","hypoallergenic bedding","speakers","TV","WiFi","pet friendly","parking","lake or mountains nearby"],"sleepingDetails":{"maxCapacity":0,"amountOfBeds":0,"extraDetails":"incidentally banish"},"checkInHourPM":18,"checkOutHourAM":12,"distanceFromCityCenterInKM":6.5,"contactDetails":{"phone":"+16746266223","email":"Kyra.Johns24@yahoo.com"},"socialMediaLinks":{"fb":"www.facebook.com","instagram":"www.instagram.com","twitter":"www.twitter.com","website":"www.google.com"}},{"id":24,"venuesBasicData":{"id":24,"location":{"streetAddress":"4047 Elza Pine","city":"East Akeem","postalCode":"00938","country":"Palestine"},"pricePerNightInEUR":24.57,"rating":2.3,"capacity":3,"name":"criminal pulse","albumId":24},"description":"than shameful table er gnash often gah scorn advertisement till sushi casement whistle bare unlike though growing out given expatiate unimpressively worth sundae excepting privilege polyester yum boohoo sociable cheerfully um equally dim diligent futon spear brave truly rue mysteriously powerful accentuate underneath aw pomelo gummy worth carnival restaurant forsaken soulful briefly circa lest amongst notwithstanding a measly mid partridge nasalise whether ack off yet engender putrid leading inside pfft tame expatiate till angrily blah hyena putrefy obligation save treasure","features":["kitchen facilities","bathroom facilities","fireplace","hypoallergenic bedding","speakers","TV","WiFi","pet friendly","parking","lake or mountains nearby"],"sleepingDetails":{"maxCapacity":3,"amountOfBeds":1.5,"extraDetails":"as import gadzooks behind slather"},"checkInHourPM":19,"checkOutHourAM":12,"distanceFromCityCenterInKM":2,"contactDetails":{"phone":"+19087869046","email":"Dariana.Schulist1@yahoo.com"},"socialMediaLinks":{"fb":"www.facebook.com","instagram":"www.instagram.com","twitter":"www.twitter.com","website":"www.google.com"}},{"id":25,"venuesBasicData":{"id":25,"location":{"streetAddress":"1091 Buckridge Courts","city":"Corpus Christi","postalCode":"62934","country":"Japan"},"pricePerNightInEUR":79.98,"rating":3,"capacity":5,"name":"excited edge","albumId":25},"description":"atrium blissfully hmph indelible unnaturally government beneath eek second commemorate splosh chromakey blah vibration suspension pish jam-packed ouch scarcely frenetically pace ack below obediently source utterly omelet blah that violently bore ick reasoning weakly boohoo zowie meal enormously cap whose that cruelty nor familiarize granny whether grim sensitize vague till schematise burgeon lest perfectly an factorize corrupt ew halt eek jaggedly yet yum drat however truthfully pull now duffel fen reproachfully like upwardly quicker scuttle boo yum meh judgementally vice","features":["kitchen facilities","bathroom facilities","fireplace","hypoallergenic bedding","speakers","TV","WiFi","pet friendly","parking","lake or mountains nearby"],"sleepingDetails":{"maxCapacity":5,"amountOfBeds":2.5,"extraDetails":"charter politely dead hose preheat"},"checkInHourPM":23,"checkOutHourAM":10,"distanceFromCityCenterInKM":1.5,"contactDetails":{"phone":"+14443604626","email":"Alek.Schmidt@yahoo.com"},"socialMediaLinks":{"fb":"www.facebook.com","instagram":"www.instagram.com","twitter":"www.twitter.com","website":"www.google.com"}},{"id":26,"venuesBasicData":{"id":26,"location":{"streetAddress":"67871 Klocko Hills","city":"North Madisonworth","postalCode":"70826-1861","country":"Barbados"},"pricePerNightInEUR":83.2,"rating":0.9,"capacity":10,"name":"naughty lox","albumId":26},"description":"nervously over resource impressionable successfully yuck draft once portray alongside speedy spirited stunt underachieve oh ecliptic if sticky jealously so never victorious during hierarchy amongst making taut to um pasta vaguely bah happy ingratiate account accentuate lazily draft yowza um down soulful expostulate gum than confide apprehensive radiant drat step close quietly partially versus chapel boohoo drat than rapidly elegantly coast and obedience victoriously inwardly cheerful farmer because hasty orchestrate well-off yahoo fat savour pish enfold dimly rationalise if against","features":["kitchen facilities","bathroom facilities","fireplace","hypoallergenic bedding","speakers","TV","WiFi","pet friendly","parking","lake or mountains nearby"],"sleepingDetails":{"maxCapacity":10,"amountOfBeds":5,"extraDetails":"boo republican muddy hastily"},"checkInHourPM":15,"checkOutHourAM":9,"distanceFromCityCenterInKM":0.5,"contactDetails":{"phone":"+13577761106","email":"Roman47@gmail.com"},"socialMediaLinks":{"fb":"www.facebook.com","instagram":"www.instagram.com","twitter":"www.twitter.com","website":"www.google.com"}},{"id":27,"venuesBasicData":{"id":27,"location":{"streetAddress":"398 The Grove","city":"Las Vegas","postalCode":"87898-4088","country":"Lao People's Democratic Republic"},"pricePerNightInEUR":96.3,"rating":0.5,"capacity":2,"name":"naughty fund","albumId":27},"description":"boggle eminent pale athwart glass splendid suspiciously tectonics hence litter noon ugh subdued fireplace milky instead bah bus failing hydrolyse slowly phew longingly weakly aha ack hypothesise fooey barracks hoarse inquisitively near or er apropos boo till because ack unless bah operating ah pliers where elevation rule ectoderm versus repossess seldom whether wisely summer although uh-huh gleaming down vice duh sedately searchingly soap instead kiddingly after hmph hence swelter lest though programme pepper embody yuck verify openly whoever birdcage duh","features":["kitchen facilities","bathroom facilities","fireplace","hypoallergenic bedding","speakers","TV","WiFi","pet friendly","parking","lake or mountains nearby"],"sleepingDetails":{"maxCapacity":2,"amountOfBeds":1,"extraDetails":"ripe hm gleefully unscramble"},"checkInHourPM":17,"checkOutHourAM":12,"distanceFromCityCenterInKM":7.5,"contactDetails":{"phone":"+12184675945","email":"Bailey78@yahoo.com"},"socialMediaLinks":{"fb":"www.facebook.com","instagram":"www.instagram.com","twitter":"www.twitter.com","website":"www.google.com"}},{"id":28,"venuesBasicData":{"id":28,"location":{"streetAddress":"630 Jackson Avenue","city":"North Melbaland","postalCode":"02068","country":"Lao People's Democratic Republic"},"pricePerNightInEUR":29.77,"rating":1.3,"capacity":10,"name":"questionable louse","albumId":28},"description":"horde since forager instantly bad milestone facilitate bleakly incomparable daily ouch growing secret calmly afore burgeon below huzzah who yum limp diversity carpool soon curiously blah between mmm deliberately scaffold than psst provided ectoderm when from fowl if unless wheel pluck whether phooey upon fathom delightfully greedy phew wearily naturally recount pish profane communicate eek messy lone release even before zowie psst victoriously gradient psst verve darn gah circa midwife next futon between relative terraform briefly aha amidst why cork","features":["kitchen facilities","bathroom facilities","fireplace","hypoallergenic bedding","speakers","TV","WiFi","pet friendly","parking","lake or mountains nearby"],"sleepingDetails":{"maxCapacity":10,"amountOfBeds":5,"extraDetails":"source naturally fiddle"},"checkInHourPM":17,"checkOutHourAM":9,"distanceFromCityCenterInKM":4.5,"contactDetails":{"phone":"+13047603107","email":"Shanna.Romaguera@hotmail.com"},"socialMediaLinks":{"fb":"www.facebook.com","instagram":"www.instagram.com","twitter":"www.twitter.com","website":"www.google.com"}},{"id":29,"venuesBasicData":{"id":29,"location":{"streetAddress":"477 Spencer Field","city":"North Toniboro","postalCode":"46454","country":"Morocco"},"pricePerNightInEUR":98.32,"rating":0.6,"capacity":8,"name":"scientific hope","albumId":29},"description":"solemnly yearningly prohibition so phew insolence aw acceptable premise uh-huh oxidize brr straight cook compete when antique mythology serenade yet stable perfectly blah capitalise that electrify for councilman ample rag though shakily community tag as furthermore as ridge league mysteriously how procrastinate very unless awkwardly eventually flawless when than on during kissingly unwieldy bakeware vivaciously lined lest blah toward than oh warlike whenever red oily pish confirm ameliorate elementary until biodegrade zowie polyester coolly for mispronounce trash breastplate excluding keenly","features":["kitchen facilities","bathroom facilities","fireplace","hypoallergenic bedding","speakers","TV","WiFi","pet friendly","parking","lake or mountains nearby"],"sleepingDetails":{"maxCapacity":8,"amountOfBeds":4,"extraDetails":"fatal fellow lox"},"checkInHourPM":18,"checkOutHourAM":11,"distanceFromCityCenterInKM":1.5,"contactDetails":{"phone":"+15699709678","email":"Francisco_Marks1@hotmail.com"},"socialMediaLinks":{"fb":"www.facebook.com","instagram":"www.instagram.com","twitter":"www.twitter.com","website":"www.google.com"}},{"id":30,"venuesBasicData":{"id":30,"location":{"streetAddress":"813 Forest Avenue","city":"Cristtown","postalCode":"75761-6120","country":"Italy"},"pricePerNightInEUR":53.49,"rating":0.4,"capacity":7,"name":"gentle swim","albumId":30},"description":"storyboard exempt parsnip focalise vice spiffy yet whether bah miserable versus mmm than custody pish bore past grandpa within carelessly vice fatally generously certify consequently interestingly scuttle meaningfully why hm concrete difficult um forswear plus concerning stay sew except how ouch dislocate sans hydrolyse midst eek annex brown likewise engender sometimes orchestrate fast yearningly beneath implode elver loftily ah whoa livid tough unnaturally possession cake oh per ah thorough physically while gratefully or whoa stoop zowie tomorrow usefully considerate unique","features":["kitchen facilities","bathroom facilities","fireplace","hypoallergenic bedding","speakers","TV","WiFi","pet friendly","parking","lake or mountains nearby"],"sleepingDetails":{"maxCapacity":7,"amountOfBeds":3.5,"extraDetails":"airline"},"checkInHourPM":15,"checkOutHourAM":9,"distanceFromCityCenterInKM":9.5,"contactDetails":{"phone":"+16519157985","email":"Aracely89@gmail.com"},"socialMediaLinks":{"fb":"www.facebook.com","instagram":"www.instagram.com","twitter":"www.twitter.com","website":"www.google.com"}},{"id":31,"venuesBasicData":{"id":31,"location":{"streetAddress":"4232 Ofelia Garden","city":"Harrisburg","postalCode":"02651-9040","country":"Kuwait"},"pricePerNightInEUR":95.83,"rating":4.5,"capacity":7,"name":"lazy bowling","albumId":31},"description":"before brave part ride where violin mooch shakily which irritably triumphantly when amount so grok vestment switch total yahoo than alert insist ew ethyl whup disapprove since frightfully against underneath cycle absentmindedly mobilize wring nearly um pressure underneath how jive onto gee backbone congregate vice aircraft and slump oh a why noted modulo self-assured clearly twine enroll miserably apropos deceivingly suffice more confusion ack ah eek guilty vice premeditation rigidly failing throughout countess ew formal blah scary playfully madly handover","features":["kitchen facilities","bathroom facilities","fireplace","hypoallergenic bedding","speakers","TV","WiFi","pet friendly","parking","lake or mountains nearby"],"sleepingDetails":{"maxCapacity":7,"amountOfBeds":3.5,"extraDetails":"approximate"},"checkInHourPM":22,"checkOutHourAM":10,"distanceFromCityCenterInKM":5.5,"contactDetails":{"phone":"+19729669732","email":"Wiley41@hotmail.com"},"socialMediaLinks":{"fb":"www.facebook.com","instagram":"www.instagram.com","twitter":"www.twitter.com","website":"www.google.com"}},{"id":32,"venuesBasicData":{"id":32,"location":{"streetAddress":"82852 The Green","city":"North Jadefort","postalCode":"30554-2248","country":"Pitcairn Islands"},"pricePerNightInEUR":35.74,"rating":0.5,"capacity":2,"name":"rectangular charlatan","albumId":32},"description":"why scale hmph dusk spring intent um yum upbeat yogurt abnegate traditionalism print aside turret debut pace per finally below officially abscond ugh now lobster total since off aboard knavishly westernize information solidly slight hypothesise per ah silver that weatherize before neat ownership on spellcheck optimal geez boohoo hourly yahoo offensively vain and scuttle pfft meanwhile gadzooks eek concerning bid mmm near schedule bustling safely segregate dense verbally boo provided burly oily as anenst blacken over sparse per astride community","features":["kitchen facilities","bathroom facilities","fireplace","hypoallergenic bedding","speakers","TV","WiFi","pet friendly","parking","lake or mountains nearby"],"sleepingDetails":{"maxCapacity":2,"amountOfBeds":1,"extraDetails":"stool"},"checkInHourPM":19,"checkOutHourAM":10,"distanceFromCityCenterInKM":3,"contactDetails":{"phone":"+15805316463","email":"Bradley_Abernathy@hotmail.com"},"socialMediaLinks":{"fb":"www.facebook.com","instagram":"www.instagram.com","twitter":"www.twitter.com","website":"www.google.com"}},{"id":33,"venuesBasicData":{"id":33,"location":{"streetAddress":"43775 Amie Light","city":"South Henri","postalCode":"17098-6646","country":"Andorra"},"pricePerNightInEUR":40.96,"rating":0.8,"capacity":7,"name":"artistic lender","albumId":33},"description":"boohoo overload psst silver enfold boo deeply rise bourgeoisie around trench emulsify exactly upbeat hoot exasperation surprised happy whoever hole knowledgeably oh midst pish scoff of suddenly crafty necessary wherever huzzah encode round transparency afterwards inwardly tray fooey salty yet phrase elastic drat sedately give supposing curly front calculating athwart provided meh boohoo dream fatherly culture whereas unselfish ack what huzzah outlandish indeed bah consequently manner lobotomise whoever huzzah yowza anxiously ack decisive till oof unlike angrily focalise probe vol","features":["kitchen facilities","bathroom facilities","fireplace","hypoallergenic bedding","speakers","TV","WiFi","pet friendly","parking","lake or mountains nearby"],"sleepingDetails":{"maxCapacity":7,"amountOfBeds":3.5,"extraDetails":"crossly sleepily bowed noteworthy drag"},"checkInHourPM":23,"checkOutHourAM":11,"distanceFromCityCenterInKM":3,"contactDetails":{"phone":"+15909882366","email":"Itzel94@gmail.com"},"socialMediaLinks":{"fb":"www.facebook.com","instagram":"www.instagram.com","twitter":"www.twitter.com","website":"www.google.com"}},{"id":34,"venuesBasicData":{"id":34,"location":{"streetAddress":"688 N Poplar Street","city":"Garthbury","postalCode":"98402-7505","country":"Marshall Islands"},"pricePerNightInEUR":51.45,"rating":1.5,"capacity":7,"name":"short-term arcade","albumId":34},"description":"where search frankly amongst until midst cow pfft yippee tender aboard modulo masquerade brr via noxious fooey blink hence dull requite jittery yahoo huzzah hmph uselessly lend longingly realistic boo aw bowler defendant while modulo think honored what intermix orchestrate miserably yum geez whenever whoever pastel supposing lender unto lifestyle joyful onto till painfully geez mealy extract baa creak provided fast hospitable loudly strange very ha wherever pliers syringe when till supportive rebound till sleepily helplessly consequently patroller enthusiastically augment","features":["kitchen facilities","bathroom facilities","fireplace","hypoallergenic bedding","speakers","TV","WiFi","pet friendly","parking","lake or mountains nearby"],"sleepingDetails":{"maxCapacity":7,"amountOfBeds":3.5,"extraDetails":"often"},"checkInHourPM":15,"checkOutHourAM":12,"distanceFromCityCenterInKM":2,"contactDetails":{"phone":"+15034425380","email":"Amos8@yahoo.com"},"socialMediaLinks":{"fb":"www.facebook.com","instagram":"www.instagram.com","twitter":"www.twitter.com","website":"www.google.com"}},{"id":35,"venuesBasicData":{"id":35,"location":{"streetAddress":"99171 Cartwright Port","city":"Pasco","postalCode":"54902","country":"Christmas Island"},"pricePerNightInEUR":92.64,"rating":2.9,"capacity":5,"name":"punctual taro","albumId":35},"description":"until probable forenenst knavishly hm tectonics to wherever not indolent indeed buzzing folklore up while foolishly or yahoo towards by boyfriend sheepishly duh mobilize when usefully down once whose masticate so cinema yowza spork youthfully inhibit overdue meh meanwhile ew strictly evenly sans vice unfortunate cheerful nor phew across usefully prejudge indelible fictionalize hence lid internalise blah consequently separately irk times yearningly eek gad noisily enormously airman wherever after adviser but icy throughout quirkily cassava persecute or whirlwind proselytise damp","features":["kitchen facilities","bathroom facilities","fireplace","hypoallergenic bedding","speakers","TV","WiFi","pet friendly","parking","lake or mountains nearby"],"sleepingDetails":{"maxCapacity":5,"amountOfBeds":2.5,"extraDetails":"usher since aboard"},"checkInHourPM":18,"checkOutHourAM":11,"distanceFromCityCenterInKM":8,"contactDetails":{"phone":"+17009605782","email":"Zakary_Stamm@hotmail.com"},"socialMediaLinks":{"fb":"www.facebook.com","instagram":"www.instagram.com","twitter":"www.twitter.com","website":"www.google.com"}},{"id":36,"venuesBasicData":{"id":36,"location":{"streetAddress":"908 The Orchard","city":"North Marionchester","postalCode":"16918-5834","country":"Panama"},"pricePerNightInEUR":17.16,"rating":4.1,"capacity":5,"name":"pointless punctuation","albumId":36},"description":"as willfully um private babyish fund but zowie yesterday deceivingly milestone that potentially yahoo address gee boo pleasure until elver hypothesize off markup quicker past amid pack dial pfft monocle geez premium excellent till bookcase rich regulate throughout why beneath colorless clinking against about short wherever since ick showy drat fragrant phew profitable instead alongside vainly round sushi slowly bravely cellar e-mail showboat loosely travel physically against foot volunteer well-groomed woot and pearl climb equal unless towards besides after castanet","features":["kitchen facilities","bathroom facilities","fireplace","hypoallergenic bedding","speakers","TV","WiFi","pet friendly","parking","lake or mountains nearby"],"sleepingDetails":{"maxCapacity":5,"amountOfBeds":2.5,"extraDetails":""},"checkInHourPM":21,"checkOutHourAM":10,"distanceFromCityCenterInKM":2,"contactDetails":{"phone":"+16932663068","email":"Brandi52@gmail.com"},"socialMediaLinks":{"fb":"www.facebook.com","instagram":"www.instagram.com","twitter":"www.twitter.com","website":"www.google.com"}},{"id":37,"venuesBasicData":{"id":37,"location":{"streetAddress":"351 W Broadway Avenue","city":"Fort Giovannistead","postalCode":"30774-6381","country":"Aruba"},"pricePerNightInEUR":33.67,"rating":1.5,"capacity":1,"name":"inferior adult","albumId":37},"description":"what including enthusiastically fly until mealy by lest mummify winding meh positively abaft like ouch reproach whose verbally whose gee an safe muddy yum flustered proceed disarm menacing drug holster instead smoothly pepper jaunty rough whenever search disinherit seemingly pliers grown skyline apropos cheerfully sour violently from annually sweatshop whoever on how for birdbath unblinking shadowy geez evenly pfft painfully tough despite scoop spirit yet oof considering bah switch ha without times absent mispronounce psst modulo premise anti slow unwritten","features":["kitchen facilities","bathroom facilities","fireplace","hypoallergenic bedding","speakers","TV","WiFi","pet friendly","parking","lake or mountains nearby"],"sleepingDetails":{"maxCapacity":1,"amountOfBeds":0.5,"extraDetails":"silently"},"checkInHourPM":16,"checkOutHourAM":10,"distanceFromCityCenterInKM":5.5,"contactDetails":{"phone":"+18824026751","email":"Alanna_Kohler23@yahoo.com"},"socialMediaLinks":{"fb":"www.facebook.com","instagram":"www.instagram.com","twitter":"www.twitter.com","website":"www.google.com"}},{"id":38,"venuesBasicData":{"id":38,"location":{"streetAddress":"46722 Shanelle Lakes","city":"Henrychester","postalCode":"33021","country":"Canada"},"pricePerNightInEUR":80.38,"rating":0.3,"capacity":7,"name":"apt lobster","albumId":38},"description":"chime triumphantly nerve inconsequential furthermore gummy stage roughly along topsail since never a at hence amongst cappelletti incidentally odd ugh lay plain segregate yahoo slip quizzically er intermesh pertinent eventually yet distinct gosh round flimsy less amongst sock with bleach ripe wasteful step verify athwart snow flustered phew disposer an under within splendid regal unconscious buttery indeed against if march excluding yuck fidget solidly reborn elastic tool that swift minority quietly whoever arraign duh scheme absent quickly hmph once monasticism","features":["kitchen facilities","bathroom facilities","fireplace","hypoallergenic bedding","speakers","TV","WiFi","pet friendly","parking","lake or mountains nearby"],"sleepingDetails":{"maxCapacity":7,"amountOfBeds":3.5,"extraDetails":""},"checkInHourPM":20,"checkOutHourAM":9,"distanceFromCityCenterInKM":8.5,"contactDetails":{"phone":"+14118082920","email":"Karson12@hotmail.com"},"socialMediaLinks":{"fb":"www.facebook.com","instagram":"www.instagram.com","twitter":"www.twitter.com","website":"www.google.com"}},{"id":39,"venuesBasicData":{"id":39,"location":{"streetAddress":"708 E 5th Street","city":"Arlington Heights","postalCode":"39667","country":"Myanmar"},"pricePerNightInEUR":59.26,"rating":4.8,"capacity":10,"name":"upset hyphenation","albumId":39},"description":"juggernaut minus probe soon uh-huh over stump pfft likely surprise animated infinite because wisely yippee clean cheese immaculate emergent each oblong concentration rusty badly since pretty while obedience rebel blah graduate triangular range crank minus down cruelly labourer successfully pigpen worth satirise now uh-huh throughout ordinary after ornate self-confidence awkwardly despite nor whose trust CD rebuild oh yum putrid rubric subtract except for yippee apologise onto deduct cycle longingly heavily fleck noted painfully councilman cop yahoo furthermore past absentmindedly aside","features":["kitchen facilities","bathroom facilities","fireplace","hypoallergenic bedding","speakers","TV","WiFi","pet friendly","parking","lake or mountains nearby"],"sleepingDetails":{"maxCapacity":10,"amountOfBeds":5,"extraDetails":"aw uh-huh crooked yesterday shinny"},"checkInHourPM":19,"checkOutHourAM":10,"distanceFromCityCenterInKM":6.5,"contactDetails":{"phone":"+14232581512","email":"Ethyl_Cassin@gmail.com"},"socialMediaLinks":{"fb":"www.facebook.com","instagram":"www.instagram.com","twitter":"www.twitter.com","website":"www.google.com"}},{"id":40,"venuesBasicData":{"id":40,"location":{"streetAddress":"4011 W North Street","city":"Lake Shaunmouth","postalCode":"20964","country":"Bermuda"},"pricePerNightInEUR":15.8,"rating":0.7,"capacity":10,"name":"squiggly kick","albumId":40},"description":"eek entwine knotty other while indeed forgery orange warlike weakly glaring queasily astride apologise presume specific which tenderly quintessential characterization reprove whose barring where continually unless even terrorise glittering dowse so aha dispose acquaintance inasmuch metabolise across eek vainly off corny pish absent sneak vice extent urgently although uh-huh sedately huzzah without firm which swift boldly mechanically amnesty censor criminal keel whereas internationalize throughout hmph fuss considering pleasure when wearily disposer except supposing showy pish anti grandpa off give ugh","features":["kitchen facilities","bathroom facilities","fireplace","hypoallergenic bedding","speakers","TV","WiFi","pet friendly","parking","lake or mountains nearby"],"sleepingDetails":{"maxCapacity":10,"amountOfBeds":5,"extraDetails":"usually tough"},"checkInHourPM":21,"checkOutHourAM":12,"distanceFromCityCenterInKM":0.5,"contactDetails":{"phone":"+16692448104","email":"Burley5@yahoo.com"},"socialMediaLinks":{"fb":"www.facebook.com","instagram":"www.instagram.com","twitter":"www.twitter.com","website":"www.google.com"}},{"id":41,"venuesBasicData":{"id":41,"location":{"streetAddress":"5770 Kilback Curve","city":"Kassulketown","postalCode":"92416","country":"Suriname"},"pricePerNightInEUR":42.05,"rating":2.2,"capacity":5,"name":"worse markup","albumId":41},"description":"among healthily approximate absentmindedly geez cavernous appliance solidly management rejoin lawful suffocate confused phew taro basket greedy deceivingly yet enlightened lovingly promise charm yawningly rundown outrun provided tut reassuringly while guest accompanist convince extremely given till devoted feather harmful jagged about scarcely behind whoa without however deeply that as anxiously equate pace alongside stint once bonfire where miserable imagineer spiffy wretched oof deliberately sternly mummify incidentally gadzooks because second-hand rarely to not fill times because partial when ick absentmindedly nor","features":["kitchen facilities","bathroom facilities","fireplace","hypoallergenic bedding","speakers","TV","WiFi","pet friendly","parking","lake or mountains nearby"],"sleepingDetails":{"maxCapacity":5,"amountOfBeds":2.5,"extraDetails":"how"},"checkInHourPM":15,"checkOutHourAM":9,"distanceFromCityCenterInKM":1,"contactDetails":{"phone":"+13342508975","email":"Elmer_Zboncak@yahoo.com"},"socialMediaLinks":{"fb":"www.facebook.com","instagram":"www.instagram.com","twitter":"www.twitter.com","website":"www.google.com"}},{"id":42,"venuesBasicData":{"id":42,"location":{"streetAddress":"767 Hegmann Fall","city":"Shanahanside","postalCode":"50432","country":"Guam"},"pricePerNightInEUR":94.86,"rating":3.6,"capacity":6,"name":"proud meander","albumId":42},"description":"trust tensely sustenance truthfully reward graceful buzzing far-flung smuggle recovery opposite neck aw geez wetly whoever delirious devoted intellect once searchingly huzzah for against yearly up drowse partial pike nicely putrid avalanche pro weight coast spring deselect towards nautical boohoo eggplant cuckoo disloyal vastly upon nun variable underneath vamoose consequently adventurously incidentally cassava redesign headline instead commonly righteously the bruised for after hairy ponder loyalty for helplessly swim preclude while if internationalize norm utterly ack mockingly impractical customise inasmuch off","features":["kitchen facilities","bathroom facilities","fireplace","hypoallergenic bedding","speakers","TV","WiFi","pet friendly","parking","lake or mountains nearby"],"sleepingDetails":{"maxCapacity":6,"amountOfBeds":3,"extraDetails":"tall blah now outrank while"},"checkInHourPM":23,"checkOutHourAM":9,"distanceFromCityCenterInKM":0,"contactDetails":{"phone":"+19766894404","email":"Delia86@gmail.com"},"socialMediaLinks":{"fb":"www.facebook.com","instagram":"www.instagram.com","twitter":"www.twitter.com","website":"www.google.com"}},{"id":43,"venuesBasicData":{"id":43,"location":{"streetAddress":"4251 Maritza Creek","city":"Connellychester","postalCode":"19227","country":"El Salvador"},"pricePerNightInEUR":40.91,"rating":2.5,"capacity":7,"name":"assured noon","albumId":43},"description":"so mountain which that woot boo brr recklessly inventory papa than um hairy whether overvalue provided suddenly boo because generally stupendous beyond tail nearly traffic fooey sadly ugh commemorate yahoo skyline grass mmm nearly likely management developmental as yowza flat any negative against sans appertain violently abnegate bore qua yahoo enthusiastically matter wobbly drat old after whether solemnly fuel annual needily uncover quicker fondly soup ick kit unless collectivization yet wearily whether dearly chase happily lawmaker round nearly above linseed","features":["kitchen facilities","bathroom facilities","fireplace","hypoallergenic bedding","speakers","TV","WiFi","pet friendly","parking","lake or mountains nearby"],"sleepingDetails":{"maxCapacity":7,"amountOfBeds":3.5,"extraDetails":"hungrily direct ouch"},"checkInHourPM":22,"checkOutHourAM":10,"distanceFromCityCenterInKM":3,"contactDetails":{"phone":"+17404007262","email":"Sasha_Abernathy-Rice@hotmail.com"},"socialMediaLinks":{"fb":"www.facebook.com","instagram":"www.instagram.com","twitter":"www.twitter.com","website":"www.google.com"}},{"id":44,"venuesBasicData":{"id":44,"location":{"streetAddress":"775 Sanford Run","city":"West Rileyfurt","postalCode":"99703-5523","country":"Sint Maarten"},"pricePerNightInEUR":41.68,"rating":0.7,"capacity":1,"name":"definite airmail","albumId":44},"description":"fog if known lively widow iridescence helplessly parsnip why peppery enormously nor like rigidly marathon gadzooks bide gadzooks offend unfit hunt treble phew duh meh sting pacemaker frankly outside stylish whoa via to management wombat fun before unfinished hovel in flowery miserable collaboration towards without hold perfectly boo brown antagonize blah ouch an mathematics near aw along than massage dependency courageously unnecessarily governance devil provided dicker adventurously when functional loftily how throughout wonderfully numeric deceivingly above boo lest unlike where","features":["kitchen facilities","bathroom facilities","fireplace","hypoallergenic bedding","speakers","TV","WiFi","pet friendly","parking","lake or mountains nearby"],"sleepingDetails":{"maxCapacity":1,"amountOfBeds":0.5,"extraDetails":"frankly aside farm ramp abnormally"},"checkInHourPM":17,"checkOutHourAM":9,"distanceFromCityCenterInKM":5.5,"contactDetails":{"phone":"+17788693987","email":"Rosina.Fisher@gmail.com"},"socialMediaLinks":{"fb":"www.facebook.com","instagram":"www.instagram.com","twitter":"www.twitter.com","website":"www.google.com"}},{"id":45,"venuesBasicData":{"id":45,"location":{"streetAddress":"58296 Joannie Estate","city":"Fort Gustavestead","postalCode":"27779","country":"Virgin Islands, British"},"pricePerNightInEUR":69.79,"rating":3.5,"capacity":2,"name":"biodegradable approach","albumId":45},"description":"annual trolley provided beneficial youthfully square bookcase off cycle ick upside-down which hence embed carouse boo ouch now rural nudge taxicab circa gymnast throbbing starch considering for capitalise sunny inquisitively ugh wherever given unabashedly eek against ugly likely hover gosh unsung gosh whirlwind gosh verbally lest boo phew ew yet sociable whether foolishly ah yogurt whoa that vicinity once canter too gah mmm blah sympathetically enraged hype paintwork consequently tragic or how pfft while although fen break doodle pasta snack","features":["kitchen facilities","bathroom facilities","fireplace","hypoallergenic bedding","speakers","TV","WiFi","pet friendly","parking","lake or mountains nearby"],"sleepingDetails":{"maxCapacity":2,"amountOfBeds":1,"extraDetails":"lest tame"},"checkInHourPM":15,"checkOutHourAM":12,"distanceFromCityCenterInKM":7,"contactDetails":{"phone":"+14643547718","email":"Brandon95@yahoo.com"},"socialMediaLinks":{"fb":"www.facebook.com","instagram":"www.instagram.com","twitter":"www.twitter.com","website":"www.google.com"}},{"id":46,"venuesBasicData":{"id":46,"location":{"streetAddress":"278 Pound Lane","city":"Millieville","postalCode":"22755","country":"Morocco"},"pricePerNightInEUR":11.75,"rating":2.7,"capacity":10,"name":"great trench","albumId":46},"description":"without considerate necessary um ugh unethically slink geez quirkily mortally dispense emulsify joyfully clear-cut corrupt valiantly while beloved quietly clinch meanwhile likewise quit each dependency markup forager if fisherman interior vast recovery frenetically hm kiss deeply while close maestro tensely circa softly lecture warming outside fooey consequently proceed surprise supposing um regarding per disclosure inasmuch midst whoever oof fall pace times about pantyhose hearten aw brr as minus ick throughout sting under in punctually unbalance crazy inquisitively quickly soft whereas","features":["kitchen facilities","bathroom facilities","fireplace","hypoallergenic bedding","speakers","TV","WiFi","pet friendly","parking","lake or mountains nearby"],"sleepingDetails":{"maxCapacity":10,"amountOfBeds":5,"extraDetails":"guacamole"},"checkInHourPM":16,"checkOutHourAM":11,"distanceFromCityCenterInKM":7,"contactDetails":{"phone":"+14156220686","email":"Norbert24@hotmail.com"},"socialMediaLinks":{"fb":"www.facebook.com","instagram":"www.instagram.com","twitter":"www.twitter.com","website":"www.google.com"}},{"id":47,"venuesBasicData":{"id":47,"location":{"streetAddress":"72329 Meadow Close","city":"South Aileen","postalCode":"45550","country":"San Marino"},"pricePerNightInEUR":77.24,"rating":2.2,"capacity":8,"name":"nervous reward","albumId":47},"description":"upon adult zowie dearly secret now quaintly forenenst yesterday deeply who creamy wombat whoever drat mild if humble lovingly very unexpectedly underneath downshift while unnecessarily anenst wedge imaginative produce whoa yearningly numeric incidentally brr for alongside circumference volunteer preclude from pick because charlatan even how and unimpressively which meh birdcage draft voluntarily illusion circle mmm via fooey although as frightfully despite meh within coordination wherever deselect numeracy by violently whoa standard ah coal or zowie role waft huzzah geez upon","features":["kitchen facilities","bathroom facilities","fireplace","hypoallergenic bedding","speakers","TV","WiFi","pet friendly","parking","lake or mountains nearby"],"sleepingDetails":{"maxCapacity":8,"amountOfBeds":4,"extraDetails":"if considering upon finally"},"checkInHourPM":18,"checkOutHourAM":10,"distanceFromCityCenterInKM":7.5,"contactDetails":{"phone":"+17358629618","email":"Kira_Schiller68@yahoo.com"},"socialMediaLinks":{"fb":"www.facebook.com","instagram":"www.instagram.com","twitter":"www.twitter.com","website":"www.google.com"}},{"id":48,"venuesBasicData":{"id":48,"location":{"streetAddress":"324 Christy Walks","city":"Diegofield","postalCode":"57775-7330","country":"Christmas Island"},"pricePerNightInEUR":63.59,"rating":1,"capacity":3,"name":"natural stitcher","albumId":48},"description":"and before ah creature fond phew sometimes without whether second between restaurant loyalty forgery merrily likewise physically forgery hence commonly beyond obscure instead boo beyond derby zowie moor shy worthwhile solidly readies dulcimer nearly usually rim rough absent moment now now readily provided now chainstay consequently abacus regularly physically ew ouch boastfully carnival as woot equate wherever shocked bruised phrase amid bulky and overdue waver pace swear archive duh excepting yahoo upon verve short below pupil fun beneficial ick up","features":["kitchen facilities","bathroom facilities","fireplace","hypoallergenic bedding","speakers","TV","WiFi","pet friendly","parking","lake or mountains nearby"],"sleepingDetails":{"maxCapacity":3,"amountOfBeds":1.5,"extraDetails":"and creative as excitedly antagonize"},"checkInHourPM":19,"checkOutHourAM":12,"distanceFromCityCenterInKM":0.5,"contactDetails":{"phone":"+16393514031","email":"Yesenia_Glover-Reinger98@hotmail.com"},"socialMediaLinks":{"fb":"www.facebook.com","instagram":"www.instagram.com","twitter":"www.twitter.com","website":"www.google.com"}},{"id":49,"venuesBasicData":{"id":49,"location":{"streetAddress":"242 Boehm Throughway","city":"West Adam","postalCode":"14773-2209","country":"Namibia"},"pricePerNightInEUR":97.63,"rating":1.5,"capacity":8,"name":"unripe netsuke","albumId":49},"description":"whoa milestone boohoo among meanwhile emboss yum badly vice absent angle kindly ha afterwards cornet large between energetically while heroine ack whether though prudent bowling label each flu wildly irk ouch glisten abaft repeatedly awareness squirm abaft yowza aha bolster carelessly reproach phooey inventory plan or as humiliating arrange motivate defensive pillow sick fooey breakable loose mooch preclude yeast vet comparison brood investigate hawk but knavishly lest idolized frightened since porter twist ornery inwardly ick lovingly excepting accredit happily roughly","features":["kitchen facilities","bathroom facilities","fireplace","hypoallergenic bedding","speakers","TV","WiFi","pet friendly","parking","lake or mountains nearby"],"sleepingDetails":{"maxCapacity":8,"amountOfBeds":4,"extraDetails":"regarding until unfinished ugh"},"checkInHourPM":21,"checkOutHourAM":9,"distanceFromCityCenterInKM":8,"contactDetails":{"phone":"+14778989903","email":"Titus_Wisoky25@hotmail.com"},"socialMediaLinks":{"fb":"www.facebook.com","instagram":"www.instagram.com","twitter":"www.twitter.com","website":"www.google.com"}},{"id":50,"venuesBasicData":{"id":50,"location":{"streetAddress":"36435 Grady Well","city":"Rauton","postalCode":"22788","country":"Qatar"},"pricePerNightInEUR":37.4,"rating":1.6,"capacity":4,"name":"black hyphenation","albumId":50},"description":"ornate porter jealous nearly rubric curse more circa understated yesterday yippee basket exactly deliberately beside regarding plump yearn fully for after joyously shrill whenever inject regarding once queasily brr solemnly mash ack violently alert sturdy provision and whoever silently graduate materialise about athwart wretched concerning feminize considering insignificant other with mmm round desk forgery whether opposite er obtrude via atomize swiftly gah extent redesign that subdued uh-huh gah behind yippee attribute mmm yahoo stock barring bind and powerfully chip lovingly","features":["kitchen facilities","bathroom facilities","fireplace","hypoallergenic bedding","speakers","TV","WiFi","pet friendly","parking","lake or mountains nearby"],"sleepingDetails":{"maxCapacity":4,"amountOfBeds":2,"extraDetails":"safeguard SUV"},"checkInHourPM":21,"checkOutHourAM":11,"distanceFromCityCenterInKM":5.5,"contactDetails":{"phone":"+13635276548","email":"Veda4@gmail.com"},"socialMediaLinks":{"fb":"www.facebook.com","instagram":"www.instagram.com","twitter":"www.twitter.com","website":"www.google.com"}},{"id":51,"venuesBasicData":{"id":51,"location":{"streetAddress":"595 Rosa Mission","city":"West Scarlett","postalCode":"65806","country":"Uzbekistan"},"pricePerNightInEUR":22.73,"rating":4.2,"capacity":4,"name":"grumpy yogurt","albumId":51},"description":"along rationalise meanwhile tremendously while convalesce although sushi characterization abaft serene euphonium depute yum govern thankfully or crushing ice-cream diligent vacantly whose traduce nervous alive that repentant how settler uh-huh pro plus uh-huh emphasize down yippee dreamily without wherever towards or seagull glossy wolf outrank properly babushka quarrelsomely mantua longingly however windy cautiously mothball because disappointment pleasure individual uh-huh publicity drat willow fuel furlough ugh forenenst including lest privilege failing yippee bruised even without whereas mummify unwilling joyous officially decongestant","features":["kitchen facilities","bathroom facilities","fireplace","hypoallergenic bedding","speakers","TV","WiFi","pet friendly","parking","lake or mountains nearby"],"sleepingDetails":{"maxCapacity":4,"amountOfBeds":2,"extraDetails":"mortise dreamily deploy"},"checkInHourPM":15,"checkOutHourAM":11,"distanceFromCityCenterInKM":8,"contactDetails":{"phone":"+12502107347","email":"Willa34@hotmail.com"},"socialMediaLinks":{"fb":"www.facebook.com","instagram":"www.instagram.com","twitter":"www.twitter.com","website":"www.google.com"}},{"id":52,"venuesBasicData":{"id":52,"location":{"streetAddress":"72923 Treutel Lakes","city":"D'Amorefort","postalCode":"29677","country":"Sudan"},"pricePerNightInEUR":21.73,"rating":1.8,"capacity":0,"name":"superb reasoning","albumId":52},"description":"source oh rue ah where sleet upward next provided behest backburn knowledgeably jagged despite wherever stylish ouch how once fluffy midst overburden even designation yippee nicely buck lay enroll mmm assured smuggle out hopelessly frankly oh founder out gosh connect phooey round furthermore about swiftly down including louse gastropod polarisation off why dock secularize eek yet address twin unto huff curiously from about ignite per decisive concerning late siege ugh monasticism ravel which righteously wonderfully consequently cinch before whoever chilly","features":["kitchen facilities","bathroom facilities","fireplace","hypoallergenic bedding","speakers","TV","WiFi","pet friendly","parking","lake or mountains nearby"],"sleepingDetails":{"maxCapacity":0,"amountOfBeds":0,"extraDetails":"ha within while"},"checkInHourPM":17,"checkOutHourAM":10,"distanceFromCityCenterInKM":6,"contactDetails":{"phone":"+19114833027","email":"Laura.Windler37@yahoo.com"},"socialMediaLinks":{"fb":"www.facebook.com","instagram":"www.instagram.com","twitter":"www.twitter.com","website":"www.google.com"}},{"id":53,"venuesBasicData":{"id":53,"location":{"streetAddress":"592 Alan Cape","city":"Woodbury","postalCode":"56733","country":"Iceland"},"pricePerNightInEUR":33.13,"rating":0.3,"capacity":7,"name":"shallow hygienic","albumId":53},"description":"yahoo cycle pro whine welcome whenever wholly engage inveigle eventually meanwhile vice only another brr brook pluck if clearly hollow at who psst geez convoke knowledgeably after basket underneath via why pleasing during backburn sundae earnest able curse until print given after exterior frozen weakly yowza pro midst helplessly noted refer regarding daintily brr gadzooks bleach governance procrastinate broadside shred unit quarrelsomely oof hm likewise interesting that where worse kindly traditionalism solvency proper qua across ha before absent yippee freely","features":["kitchen facilities","bathroom facilities","fireplace","hypoallergenic bedding","speakers","TV","WiFi","pet friendly","parking","lake or mountains nearby"],"sleepingDetails":{"maxCapacity":7,"amountOfBeds":3.5,"extraDetails":"shameful cone"},"checkInHourPM":22,"checkOutHourAM":9,"distanceFromCityCenterInKM":8,"contactDetails":{"phone":"+16909016721","email":"Brad_Shanahan-Fisher73@hotmail.com"},"socialMediaLinks":{"fb":"www.facebook.com","instagram":"www.instagram.com","twitter":"www.twitter.com","website":"www.google.com"}},{"id":54,"venuesBasicData":{"id":54,"location":{"streetAddress":"235 Cecile Route","city":"North Maryam","postalCode":"47161-8621","country":"Belgium"},"pricePerNightInEUR":25.31,"rating":2.9,"capacity":10,"name":"prestigious fit","albumId":54},"description":"skeleton that when dearly state anaesthetise hollow suffice peaceful athwart boo glider curry thigh strong sermon whose deafening sizzle however different abaft cycle but upset hmph throughout failing bitter windy advocate talkative conservative paltry aside gown foolishly pure lest cripple stupendous grandpa worriedly since harmful pro inside until for huzzah capitalise smoothly casket mutate huzzah preside masquerade until heavily obnoxiously pish duh reservation prudent turbulent overconfidently abaft absent though for yahoo each daily lively concerning rebuff while per mixed behind","features":["kitchen facilities","bathroom facilities","fireplace","hypoallergenic bedding","speakers","TV","WiFi","pet friendly","parking","lake or mountains nearby"],"sleepingDetails":{"maxCapacity":10,"amountOfBeds":5,"extraDetails":"ew notarize savour"},"checkInHourPM":23,"checkOutHourAM":12,"distanceFromCityCenterInKM":8,"contactDetails":{"phone":"+16508413422","email":"Maurine74@gmail.com"},"socialMediaLinks":{"fb":"www.facebook.com","instagram":"www.instagram.com","twitter":"www.twitter.com","website":"www.google.com"}},{"id":55,"venuesBasicData":{"id":55,"location":{"streetAddress":"7589 Yolanda Cliff","city":"McCulloughfurt","postalCode":"74971-4103","country":"Gabon"},"pricePerNightInEUR":58.89,"rating":4.7,"capacity":5,"name":"impressive ribbon","albumId":55},"description":"dutiful yuck tough because ouch because as tremendously configuration sticker draft glow dreamily rigidly charm inasmuch clearly woot noisily volunteer usefully phooey dependent nightlife merrily unlike even sympathetically and stabilise phooey lasting monthly continually now around whereas till lecture upside-down hornet innocently whoever geez aboard bank nor bewail negotiation generously taro where garage outside jut gripper progress whereas chip closely minority practical once smoothly misjudge tenant cricket continually jovially sidetrack aha before yippee loosely whoa proliferate amid settle creative redress","features":["kitchen facilities","bathroom facilities","fireplace","hypoallergenic bedding","speakers","TV","WiFi","pet friendly","parking","lake or mountains nearby"],"sleepingDetails":{"maxCapacity":5,"amountOfBeds":2.5,"extraDetails":"after behind alive"},"checkInHourPM":19,"checkOutHourAM":12,"distanceFromCityCenterInKM":4,"contactDetails":{"phone":"+12778583643","email":"Karl_Ondricka@hotmail.com"},"socialMediaLinks":{"fb":"www.facebook.com","instagram":"www.instagram.com","twitter":"www.twitter.com","website":"www.google.com"}},{"id":56,"venuesBasicData":{"id":56,"location":{"streetAddress":"1859 The Mews","city":"Lake Lukas","postalCode":"09092","country":"Mali"},"pricePerNightInEUR":98.81,"rating":1.8,"capacity":3,"name":"stained monocle","albumId":56},"description":"than uselessly until hasty athwart honored management whereas lest bah trash though since sans times instead serve hyena of scratch aha jet rough descendant vice likewise velvety bludgeon beyond mmm onto against separate after young buzzing er awkwardly moral worth cuckoo linear along aggressive kookily yum now vengeful only dismal lively deeply minus dusk quarrel inasmuch energetically gorgeous whenever guard second incidentally though ultimately shoulder inside once as aha gosh queasily overconfidently knickers outside guilty precedent rewarding debut phooey inveigle","features":["kitchen facilities","bathroom facilities","fireplace","hypoallergenic bedding","speakers","TV","WiFi","pet friendly","parking","lake or mountains nearby"],"sleepingDetails":{"maxCapacity":3,"amountOfBeds":1.5,"extraDetails":"a arrogantly anenst yet axe"},"checkInHourPM":18,"checkOutHourAM":10,"distanceFromCityCenterInKM":7,"contactDetails":{"phone":"+13668190769","email":"Cristal_McKenzie82@gmail.com"},"socialMediaLinks":{"fb":"www.facebook.com","instagram":"www.instagram.com","twitter":"www.twitter.com","website":"www.google.com"}},{"id":57,"venuesBasicData":{"id":57,"location":{"streetAddress":"66304 Walnut Street","city":"East Rudolphshire","postalCode":"66106-1866","country":"Comoros"},"pricePerNightInEUR":76.95,"rating":1.9,"capacity":10,"name":"neat pension","albumId":57},"description":"however generally onto bah often lashes lobster and kindly ugh dazzling gallery sugary readily who aboard after or extension citizen including pish break while orange well-off posh punctual climb handy almost archaeology disclosure excepting puzzled whoever nutritious upset afore qua bah while furthermore jealous going drat clearly zowie international that function left generally psst furiously warlike when cuckoo materialise for calmly absent aw putrid while after mom yum feminize destock sometimes blank mutate howl lest schlep if before meaningfully monthly","features":["kitchen facilities","bathroom facilities","fireplace","hypoallergenic bedding","speakers","TV","WiFi","pet friendly","parking","lake or mountains nearby"],"sleepingDetails":{"maxCapacity":10,"amountOfBeds":5,"extraDetails":""},"checkInHourPM":20,"checkOutHourAM":9,"distanceFromCityCenterInKM":2,"contactDetails":{"phone":"+16017530072","email":"Grover_Medhurst0@yahoo.com"},"socialMediaLinks":{"fb":"www.facebook.com","instagram":"www.instagram.com","twitter":"www.twitter.com","website":"www.google.com"}},{"id":58,"venuesBasicData":{"id":58,"location":{"streetAddress":"9795 Lonny Ridges","city":"Wittingboro","postalCode":"49851-1729","country":"Saint Lucia"},"pricePerNightInEUR":25.86,"rating":0,"capacity":10,"name":"sunny grandson","albumId":58},"description":"mask industrialize sweet modulo fooey waist once brightly though by wonderfully intensely judicious whale incidentally kookily behold doing pace dull which wolf atop quarrelsomely energetically selfishly alongside yahoo whenever continually airbus greedily medium deeply hmph mmm crystallize unless lyre until arcade woeful aha woot unless fragrant accentuate sunbeam nucleotidase noted bashfully nectarine instead ew indeed phooey measly loudly happily provided oh considerate outfit knitting upside-down monster boo supposing than phew quarrelsomely forage psst new tasty boohoo down selfishly atop hence","features":["kitchen facilities","bathroom facilities","fireplace","hypoallergenic bedding","speakers","TV","WiFi","pet friendly","parking","lake or mountains nearby"],"sleepingDetails":{"maxCapacity":10,"amountOfBeds":5,"extraDetails":""},"checkInHourPM":22,"checkOutHourAM":12,"distanceFromCityCenterInKM":5.5,"contactDetails":{"phone":"+15327973197","email":"Muhammad82@yahoo.com"},"socialMediaLinks":{"fb":"www.facebook.com","instagram":"www.instagram.com","twitter":"www.twitter.com","website":"www.google.com"}},{"id":59,"venuesBasicData":{"id":59,"location":{"streetAddress":"85126 Cumberland Street","city":"Lake Christianafurt","postalCode":"18138","country":"Virgin Islands, British"},"pricePerNightInEUR":72.28,"rating":0.5,"capacity":3,"name":"hopeful nun","albumId":59},"description":"kissingly direct like mmm and so the detain annually nor request interestingly versus mortally if ecstatic qua rationalize gadzooks furiously athwart crystallize tender outside scare finally bakeware beyond milky ick slather vivaciously playfully king who heavily premier frilly meanwhile fondly vastly unfortunately that terrorise unscramble access misspend scratchy solemnly ha attest degenerate trash pfft good including rosy plain within fairly fork worriedly ruddy in pixellate ecstatic although madly aha coordination tidy curly justly yawn pish helpfully milky tomorrow transom firm","features":["kitchen facilities","bathroom facilities","fireplace","hypoallergenic bedding","speakers","TV","WiFi","pet friendly","parking","lake or mountains nearby"],"sleepingDetails":{"maxCapacity":3,"amountOfBeds":1.5,"extraDetails":"likewise blossom"},"checkInHourPM":18,"checkOutHourAM":11,"distanceFromCityCenterInKM":9.5,"contactDetails":{"phone":"+19124960110","email":"Trudie60@gmail.com"},"socialMediaLinks":{"fb":"www.facebook.com","instagram":"www.instagram.com","twitter":"www.twitter.com","website":"www.google.com"}},{"id":60,"venuesBasicData":{"id":60,"location":{"streetAddress":"762 Antonette Plaza","city":"South Sadie","postalCode":"00465-0599","country":"Ecuador"},"pricePerNightInEUR":45.33,"rating":0,"capacity":5,"name":"hot formula","albumId":60},"description":"midst rudely stained dearly tapioca ski yahoo creator however inasmuch naturally gee ownership excluding dependable likewise mixture however switch obediently inquisitively punctuation brr fast knotty uncomfortable than on deduction from yippee apropos colossal whether humidity jovially apud talkative slap woot from ack never spice muscat though along character wasteful finished overreact please fold aside but kindly likewise ick as fooey boo mmm defenseless aha messy unless striking interesting geez neat ascertain aboard wry whether modulo unconscious mechanically among at hence","features":["kitchen facilities","bathroom facilities","fireplace","hypoallergenic bedding","speakers","TV","WiFi","pet friendly","parking","lake or mountains nearby"],"sleepingDetails":{"maxCapacity":5,"amountOfBeds":2.5,"extraDetails":"distinction unfinished what ew bench"},"checkInHourPM":18,"checkOutHourAM":10,"distanceFromCityCenterInKM":1.5,"contactDetails":{"phone":"+16194293566","email":"Bertrand56@gmail.com"},"socialMediaLinks":{"fb":"www.facebook.com","instagram":"www.instagram.com","twitter":"www.twitter.com","website":"www.google.com"}},{"id":61,"venuesBasicData":{"id":61,"location":{"streetAddress":"918 Zoie Place","city":"Erichshire","postalCode":"54194-3042","country":"Cape Verde"},"pricePerNightInEUR":75.13,"rating":3.2,"capacity":9,"name":"brisk heartache","albumId":61},"description":"burdensome once acquaintance the smuggle bookend whoever upon forearm majestically intently finally sympathetically um ew vivaciously shyly fundraising to helpful arcade blah pushy eek cruelty farmer so schlep long gosh huzzah mystify monthly than concerning verbally the why boo until international motivate parched worriedly what sunder creative unless kissingly tepid litter soon disconnection enhance burdensome excepting throughout someplace unselfish plus edge possession waltz only sardonic informal brood following via to availability tenderly ironclad yearly deafening save whether standard that worse","features":["kitchen facilities","bathroom facilities","fireplace","hypoallergenic bedding","speakers","TV","WiFi","pet friendly","parking","lake or mountains nearby"],"sleepingDetails":{"maxCapacity":9,"amountOfBeds":4.5,"extraDetails":"around now"},"checkInHourPM":23,"checkOutHourAM":11,"distanceFromCityCenterInKM":9,"contactDetails":{"phone":"+15139170784","email":"Emilia.Shanahan@gmail.com"},"socialMediaLinks":{"fb":"www.facebook.com","instagram":"www.instagram.com","twitter":"www.twitter.com","website":"www.google.com"}},{"id":62,"venuesBasicData":{"id":62,"location":{"streetAddress":"408 Rachael Shore","city":"West Aubreyboro","postalCode":"74002-0153","country":"Ethiopia"},"pricePerNightInEUR":41.13,"rating":4.5,"capacity":8,"name":"runny kick","albumId":62},"description":"instructor frenetically why overvalue confirm safe plan opera whoever rigidly versus consequently highly beyond forsaken rigid taut median opposite phew likewise ah um geez yogurt cruel phooey rosemary now perky wise quaff but unless fooey linseed following house down avow um overcharge toward plastic fuzzy ah as within cheap persecute search greedily swing while winding silently blaring whoa parched without peaceful content mostly woot tightly really pro gadzooks for sunder wasteful since whoever enroll cross narrate nice retention whose so","features":["kitchen facilities","bathroom facilities","fireplace","hypoallergenic bedding","speakers","TV","WiFi","pet friendly","parking","lake or mountains nearby"],"sleepingDetails":{"maxCapacity":8,"amountOfBeds":4,"extraDetails":"muddy lively neaten"},"checkInHourPM":20,"checkOutHourAM":12,"distanceFromCityCenterInKM":4.5,"contactDetails":{"phone":"+17857742476","email":"Esta98@gmail.com"},"socialMediaLinks":{"fb":"www.facebook.com","instagram":"www.instagram.com","twitter":"www.twitter.com","website":"www.google.com"}},{"id":63,"venuesBasicData":{"id":63,"location":{"streetAddress":"3197 Abagail Lock","city":"Lake Mertiehaven","postalCode":"87792-5923","country":"Jersey"},"pricePerNightInEUR":36.41,"rating":1.5,"capacity":3,"name":"hoarse status","albumId":63},"description":"galoshes pfft mmm attest glaring gadzooks mmm painfully duh pish crushing glisten pfft powerful coaxingly who finally parsnip vacantly inasmuch phooey lest yuck irk soliloquy indeed aha norm riser grubby uh-huh dull oof juggernaut diligent modulo needily governance so front if daintily ah deploy gadzooks than of back ack rot seemingly daintily structure marvelous embalm outside delightfully gurn schedule countess beautifully atop exactly regarding yuck ouch toothpick after the gosh scale sad scoff assist broadly inasmuch negative smoothly yum although","features":["kitchen facilities","bathroom facilities","fireplace","hypoallergenic bedding","speakers","TV","WiFi","pet friendly","parking","lake or mountains nearby"],"sleepingDetails":{"maxCapacity":3,"amountOfBeds":1.5,"extraDetails":"because"},"checkInHourPM":15,"checkOutHourAM":11,"distanceFromCityCenterInKM":4,"contactDetails":{"phone":"+19095610006","email":"Roslyn_Keeling@hotmail.com"},"socialMediaLinks":{"fb":"www.facebook.com","instagram":"www.instagram.com","twitter":"www.twitter.com","website":"www.google.com"}},{"id":64,"venuesBasicData":{"id":64,"location":{"streetAddress":"8966 E Bridge Street","city":"Port Ofeliastead","postalCode":"33196","country":"Virgin Islands, British"},"pricePerNightInEUR":70.14,"rating":3.2,"capacity":5,"name":"impolite swordfish","albumId":64},"description":"neighboring meal aha incidentally furthermore excellent badly dense haircut soybean summarise out modulo whoa whenever made-up clearly separately after which book slowly supposing rag while spectacles mummify tune-up ugh inside floodlight jealously greedily versus similar nervously huzzah whereas gestate transcend dearly busily stay carefully gee pessimistic amidst provided present within properly shinny onto burdensome trust generally huzzah instantly pace feather inside gosh underneath till untrue mobility why whoa likewise blend dowse nippy minor father hmph gray whereas embalm upside-down ew","features":["kitchen facilities","bathroom facilities","fireplace","hypoallergenic bedding","speakers","TV","WiFi","pet friendly","parking","lake or mountains nearby"],"sleepingDetails":{"maxCapacity":5,"amountOfBeds":2.5,"extraDetails":"ick outrageous zowie"},"checkInHourPM":20,"checkOutHourAM":9,"distanceFromCityCenterInKM":1,"contactDetails":{"phone":"+18386178494","email":"Rodrick38@hotmail.com"},"socialMediaLinks":{"fb":"www.facebook.com","instagram":"www.instagram.com","twitter":"www.twitter.com","website":"www.google.com"}},{"id":65,"venuesBasicData":{"id":65,"location":{"streetAddress":"76020 Vaughn Valleys","city":"Gaetanofurt","postalCode":"52240","country":"Paraguay"},"pricePerNightInEUR":9.56,"rating":2.8,"capacity":5,"name":"waterlogged petticoat","albumId":65},"description":"wretched judgementally ha qua bravely through knavishly amongst sightseeing amidst tightly quickly fooey ordinary meadow than aha practical pfft cop-out kissingly lovingly thoughtfully stratify fooey ah aside inasmuch stylish maroon mount than lest vibraphone wherever fiercely questioningly inwardly gosh forgather deselect after when save knowledgeably hm or circumnavigate impact lest ah upwardly squid psst linear which selfish ha descendant snack illustrious machine following hotfoot urgently march on sans fly down riser monthly seldom silently demonstrate what provided sticker out yum","features":["kitchen facilities","bathroom facilities","fireplace","hypoallergenic bedding","speakers","TV","WiFi","pet friendly","parking","lake or mountains nearby"],"sleepingDetails":{"maxCapacity":5,"amountOfBeds":2.5,"extraDetails":"without thin likewise"},"checkInHourPM":19,"checkOutHourAM":12,"distanceFromCityCenterInKM":3,"contactDetails":{"phone":"+12252260489","email":"Allison.Greenfelder90@gmail.com"},"socialMediaLinks":{"fb":"www.facebook.com","instagram":"www.instagram.com","twitter":"www.twitter.com","website":"www.google.com"}},{"id":66,"venuesBasicData":{"id":66,"location":{"streetAddress":"280 The Oaks","city":"Kalebville","postalCode":"24073-2133","country":"Trinidad and Tobago"},"pricePerNightInEUR":48.39,"rating":1.9,"capacity":1,"name":"nippy lifestyle","albumId":66},"description":"toothpick dental incidentally carelessly discourse finally eek fill harangue that sheepishly eek outfox phew dense likely bulky noteworthy mmm singe accentuate remorseful far-flung yippee from queasily wordy shyly smoke mainstream shrilly optimistically why whose courtroom orchid adventurously bump gut enthusiastically hungrily anenst king on across gullible loftily gallivant once keenly disgorge continually internalise whenever long-term plan reluctantly valuable whoever monocle warm following psst cardboard until valuable disposer scram behind aha up cheese suspension warmhearted demob inside qua rubbery cellar crushing","features":["kitchen facilities","bathroom facilities","fireplace","hypoallergenic bedding","speakers","TV","WiFi","pet friendly","parking","lake or mountains nearby"],"sleepingDetails":{"maxCapacity":1,"amountOfBeds":0.5,"extraDetails":""},"checkInHourPM":15,"checkOutHourAM":11,"distanceFromCityCenterInKM":9.5,"contactDetails":{"phone":"+15408174163","email":"Jack.Kohler-Krajcik60@hotmail.com"},"socialMediaLinks":{"fb":"www.facebook.com","instagram":"www.instagram.com","twitter":"www.twitter.com","website":"www.google.com"}},{"id":67,"venuesBasicData":{"id":67,"location":{"streetAddress":"423 Alfreda Land","city":"Langworthhaven","postalCode":"84384-8102","country":"Fiji"},"pricePerNightInEUR":53.86,"rating":0.5,"capacity":8,"name":"grown vein","albumId":67},"description":"but bare between until cheap as tightly even yahoo upon ultimately a boohoo mmm amongst meanwhile within ick ponder agile separately accentuate weakly forenenst judgementally kindly near snow as how toothbrush partially connect yeast egg violent winding triumphantly phew slap about next whereas whereas yet amid repossess towards grounded delete off upbeat cruelty blah ultimate until that fort mid profitable feline ditch unaware at if ah beneath edge toward fiercely an fax righteously because midst of mysterious provided wrathful than","features":["kitchen facilities","bathroom facilities","fireplace","hypoallergenic bedding","speakers","TV","WiFi","pet friendly","parking","lake or mountains nearby"],"sleepingDetails":{"maxCapacity":8,"amountOfBeds":4,"extraDetails":"exhaust fundraising nun"},"checkInHourPM":22,"checkOutHourAM":11,"distanceFromCityCenterInKM":8,"contactDetails":{"phone":"+17377577593","email":"Garth_Murazik28@yahoo.com"},"socialMediaLinks":{"fb":"www.facebook.com","instagram":"www.instagram.com","twitter":"www.twitter.com","website":"www.google.com"}},{"id":68,"venuesBasicData":{"id":68,"location":{"streetAddress":"630 Manor Gardens","city":"Fort Josue","postalCode":"68533","country":"Rwanda"},"pricePerNightInEUR":23.2,"rating":4.5,"capacity":6,"name":"focused adult","albumId":68},"description":"supposing glorious whoever amid irritably powerfully overwork accelerator anti woot hmph sock pretty convalesce now vice where fork over majestically fond boohoo evenly simple till until furthermore about greedily frivolous deceivingly meh please drowse mythology yuck owlishly slide royal perfection overconfidently after amongst why suddenly second-hand excess whereas palate far untried ha likewise scarily abaft monocle slime acceptable uh-huh smoggy apud trek focused hepatitis whether flustered sad acidly so bathrobe elderly even because unnecessarily gee nor madly until toaster entry","features":["kitchen facilities","bathroom facilities","fireplace","hypoallergenic bedding","speakers","TV","WiFi","pet friendly","parking","lake or mountains nearby"],"sleepingDetails":{"maxCapacity":6,"amountOfBeds":3,"extraDetails":"gah"},"checkInHourPM":22,"checkOutHourAM":9,"distanceFromCityCenterInKM":8.5,"contactDetails":{"phone":"+14089444983","email":"Mona7@hotmail.com"},"socialMediaLinks":{"fb":"www.facebook.com","instagram":"www.instagram.com","twitter":"www.twitter.com","website":"www.google.com"}},{"id":69,"venuesBasicData":{"id":69,"location":{"streetAddress":"4620 Martin Luther King Drive","city":"Christiansenland","postalCode":"77465","country":"Gabon"},"pricePerNightInEUR":15.48,"rating":4.5,"capacity":3,"name":"empty arcade","albumId":69},"description":"till ignorant pace instantly ouch ick because the inasmuch bustling loudly geez but huzzah miserably statue though demob boldly gosh cease swift infamous young loftily likewise glass promptly incidentally inasmuch up sanity bulky aha sunbathe helpfully scorpion ultimately woefully recount save honorable casket out enlightened cautiously clearly fidget gratefully kindly major after juicy worth glossy westernise bus following department offend oh toward knowingly whenever nor however everlasting overspend incidentally whoever apparatus valiantly ouch crowded ugh whether toward mathematics safe adventurously","features":["kitchen facilities","bathroom facilities","fireplace","hypoallergenic bedding","speakers","TV","WiFi","pet friendly","parking","lake or mountains nearby"],"sleepingDetails":{"maxCapacity":3,"amountOfBeds":1.5,"extraDetails":"bah consequently unbearably"},"checkInHourPM":18,"checkOutHourAM":11,"distanceFromCityCenterInKM":9,"contactDetails":{"phone":"+16403224045","email":"Gwen53@gmail.com"},"socialMediaLinks":{"fb":"www.facebook.com","instagram":"www.instagram.com","twitter":"www.twitter.com","website":"www.google.com"}},{"id":70,"venuesBasicData":{"id":70,"location":{"streetAddress":"77913 W 2nd Street","city":"South Whittier","postalCode":"75877","country":"Slovenia"},"pricePerNightInEUR":18.29,"rating":0.5,"capacity":8,"name":"untried king","albumId":70},"description":"airman against soupy wearily linseed unless huzzah without regarding degrease fork meh cheetah ha descendant talkative boohoo who svelte since pale immediately custom pertain the cheap instead straw roughly yippee where yum defiantly never jiggle dissemble athwart pull bad boohoo expensive godparent brace merrily rapidly hmph cheerful ew healthily ad monthly but private utterly lest grave dim parsnip what handful ew indeed smooth pink gah frantically huzzah irresponsible mob where geez nautical brr gadzooks or elliptical till which tank untimely","features":["kitchen facilities","bathroom facilities","fireplace","hypoallergenic bedding","speakers","TV","WiFi","pet friendly","parking","lake or mountains nearby"],"sleepingDetails":{"maxCapacity":8,"amountOfBeds":4,"extraDetails":""},"checkInHourPM":19,"checkOutHourAM":12,"distanceFromCityCenterInKM":0,"contactDetails":{"phone":"+12427918159","email":"Vladimir.Graham@hotmail.com"},"socialMediaLinks":{"fb":"www.facebook.com","instagram":"www.instagram.com","twitter":"www.twitter.com","website":"www.google.com"}},{"id":71,"venuesBasicData":{"id":71,"location":{"streetAddress":"113 Oberbrunner Centers","city":"Kossfield","postalCode":"83951-9429","country":"Reunion"},"pricePerNightInEUR":25.86,"rating":2.5,"capacity":1,"name":"rectangular hydrocarbon","albumId":71},"description":"eek flowery density very always coolly representation sugary meh nor opposite since irresponsible incidentally yum scope incidentally via onto subtle seldom ick sashay poetry own zowie ignite veto quarrelsomely whereas which tedious really wherever boohoo sniveling whoa lest alarmed indeed adolescent yuck normal gah inquisitively since oof vice hydrolyze instead doorpost hopelessly behind closely whenever thunderbolt bore ham whose vein nor nasalise via ack fatherly sesame miskey phew elegant for fleck printer meh compete while acidic step-mother hmph after whenever","features":["kitchen facilities","bathroom facilities","fireplace","hypoallergenic bedding","speakers","TV","WiFi","pet friendly","parking","lake or mountains nearby"],"sleepingDetails":{"maxCapacity":1,"amountOfBeds":0.5,"extraDetails":"enrich train upon"},"checkInHourPM":20,"checkOutHourAM":10,"distanceFromCityCenterInKM":7.5,"contactDetails":{"phone":"+12282394140","email":"Colton.Cole1@gmail.com"},"socialMediaLinks":{"fb":"www.facebook.com","instagram":"www.instagram.com","twitter":"www.twitter.com","website":"www.google.com"}},{"id":72,"venuesBasicData":{"id":72,"location":{"streetAddress":"49076 Cathy Knoll","city":"West Tavaresport","postalCode":"51975-6931","country":"Tajikistan"},"pricePerNightInEUR":8.52,"rating":4.6,"capacity":3,"name":"doting decryption","albumId":72},"description":"woefully acceptable specific around deployment absent lavish giant urgently joyful that good since ah emphasize without ack since ugh fencing silky useless tightly curse restructure however nor requirement forsaken fail motionless till honored hungrily costume woot drat whose mmm willing even tedious gripping charter phew who vacantly connect sympathetically absent celebrated far phew disrespect physically tedious sternly hm duh curse clamour infinite regulate deselect extract as hence wring airline equate abnormally throughout oh forecast devise lyre willing represent clumsy reluctantly","features":["kitchen facilities","bathroom facilities","fireplace","hypoallergenic bedding","speakers","TV","WiFi","pet friendly","parking","lake or mountains nearby"],"sleepingDetails":{"maxCapacity":3,"amountOfBeds":1.5,"extraDetails":""},"checkInHourPM":19,"checkOutHourAM":11,"distanceFromCityCenterInKM":1.5,"contactDetails":{"phone":"+17092124858","email":"Mya99@gmail.com"},"socialMediaLinks":{"fb":"www.facebook.com","instagram":"www.instagram.com","twitter":"www.twitter.com","website":"www.google.com"}},{"id":73,"venuesBasicData":{"id":73,"location":{"streetAddress":"651 Runolfsson Gardens","city":"West Darylberg","postalCode":"44964-8540","country":"Togo"},"pricePerNightInEUR":12.81,"rating":4.9,"capacity":0,"name":"deep release","albumId":73},"description":"whoa yahoo seagull negotiation place extension fiddle incidentally readjust license less institutionalize scented yum slipper mash spear instructive unfortunately psst pish if intensely and outside moor likewise like sheepishly blah lift yuck cripple who paralyse yearn after pine subtract overcooked ouch and subtle mmm bleakly prohibition mobility electric curiously surprisingly although accredit crest thoughtfully injunction digit spear ah tall meatloaf huzzah overconfidently embody hm avaricious queasily what enormously off during furthermore almost while warm yowza hm if uncommon jeopardise yippee","features":["kitchen facilities","bathroom facilities","fireplace","hypoallergenic bedding","speakers","TV","WiFi","pet friendly","parking","lake or mountains nearby"],"sleepingDetails":{"maxCapacity":0,"amountOfBeds":0,"extraDetails":"igloo"},"checkInHourPM":17,"checkOutHourAM":9,"distanceFromCityCenterInKM":1.5,"contactDetails":{"phone":"+12814862884","email":"Brayan63@gmail.com"},"socialMediaLinks":{"fb":"www.facebook.com","instagram":"www.instagram.com","twitter":"www.twitter.com","website":"www.google.com"}},{"id":74,"venuesBasicData":{"id":74,"location":{"streetAddress":"5945 Farrell Rapids","city":"Abilene","postalCode":"46914","country":"Indonesia"},"pricePerNightInEUR":15.5,"rating":0.1,"capacity":2,"name":"unfortunate cheetah","albumId":74},"description":"when phooey whereas fortunately drat gah cheetah kissingly foodstuffs whoa like stool alongside carpool er oof eventually reproachfully toward weight pfft mould stabilise blah roadway minus violently mmm blank after dishonor youthful beyond than whereas selfishly consequently provided slope around justly till minus hubris kookily which stall cleverly fiddle someplace ick faithfully boo edge signature beside between following total meanwhile clearly crocodile against vice while loose querulous impassioned coolly hype however well-off pleasing likewise pish wherever windy vague jealously meander","features":["kitchen facilities","bathroom facilities","fireplace","hypoallergenic bedding","speakers","TV","WiFi","pet friendly","parking","lake or mountains nearby"],"sleepingDetails":{"maxCapacity":2,"amountOfBeds":1,"extraDetails":"clueless stump before athwart from"},"checkInHourPM":23,"checkOutHourAM":10,"distanceFromCityCenterInKM":0,"contactDetails":{"phone":"+13544082411","email":"Sallie52@gmail.com"},"socialMediaLinks":{"fb":"www.facebook.com","instagram":"www.instagram.com","twitter":"www.twitter.com","website":"www.google.com"}},{"id":75,"venuesBasicData":{"id":75,"location":{"streetAddress":"55060 Alvera Brooks","city":"West Cristinafield","postalCode":"00850","country":"Haiti"},"pricePerNightInEUR":65.75,"rating":0.4,"capacity":6,"name":"aware meal","albumId":75},"description":"yippee cruel secularize huzzah instead drive conservative aw canter skeletal boohoo hmph serialize stuff empty sedately pillory smuggle smooth about different handle tail for but frightfully brr psst fatally imaginary round buzzing brightly emerge ouch surprised sans furlough before briefly experience rightfully excluding unique lox although fleck rebel joyfully yuck anti warped vivaciously husky considering physically how as heartache which supplier phew tremendously beret yahoo concerning where apostrophize whoever ordinary abaft aftermath drug pish ah forgo axe only lest whereas","features":["kitchen facilities","bathroom facilities","fireplace","hypoallergenic bedding","speakers","TV","WiFi","pet friendly","parking","lake or mountains nearby"],"sleepingDetails":{"maxCapacity":6,"amountOfBeds":3,"extraDetails":"retrospectivity yet"},"checkInHourPM":19,"checkOutHourAM":12,"distanceFromCityCenterInKM":3.5,"contactDetails":{"phone":"+17223059588","email":"Kraig.Sanford@gmail.com"},"socialMediaLinks":{"fb":"www.facebook.com","instagram":"www.instagram.com","twitter":"www.twitter.com","website":"www.google.com"}},{"id":76,"venuesBasicData":{"id":76,"location":{"streetAddress":"56312 N College Street","city":"South Claudie","postalCode":"27958-4080","country":"Ethiopia"},"pricePerNightInEUR":18.82,"rating":3.3,"capacity":10,"name":"voluminous secrecy","albumId":76},"description":"ignite gadzooks bitterly ack modulo friendly er sundae quarrelsomely chasuble dramatize behind yahoo for gah bah hepatitis lest recompense phew opposite before psst till modulo circa concerned helpful regarding scowl whenever portray supposing aw ick brr cross-contamination since fly construe colorfully ack during transcend happy bah past splosh repeatedly optimistic gorgeous via inconsequential annually octave scornful grave provided ambitious until greatly bogus boo now likewise guest but aged because notwithstanding per duh iridescence provided triangular captain brr that partial outside","features":["kitchen facilities","bathroom facilities","fireplace","hypoallergenic bedding","speakers","TV","WiFi","pet friendly","parking","lake or mountains nearby"],"sleepingDetails":{"maxCapacity":10,"amountOfBeds":5,"extraDetails":"rich famously clean"},"checkInHourPM":16,"checkOutHourAM":12,"distanceFromCityCenterInKM":0,"contactDetails":{"phone":"+13297318150","email":"Kaci37@yahoo.com"},"socialMediaLinks":{"fb":"www.facebook.com","instagram":"www.instagram.com","twitter":"www.twitter.com","website":"www.google.com"}},{"id":77,"venuesBasicData":{"id":77,"location":{"streetAddress":"501 Pollich Flats","city":"West Urban","postalCode":"83304-0418","country":"Antarctica"},"pricePerNightInEUR":1.97,"rating":1.2,"capacity":7,"name":"near airmail","albumId":77},"description":"violin than carelessly whoa young gadzooks sunder through hubris at and potentially yet for linear intensely shadowy fooey without lest negligible phew at valentine around upon inasmuch ick tired community hm past less boo onto until robust dissemble slipper onto exalt fully ugh long pfft upsell eventually deserted pish pupil pretty boohoo brr sidetrack ew incidentally until drat skeleton nervously swiftly yeast though phooey mystify overreact readmit wherever whose gracefully instantly more whereas well-worn mindless deed openly impact once throbbing","features":["kitchen facilities","bathroom facilities","fireplace","hypoallergenic bedding","speakers","TV","WiFi","pet friendly","parking","lake or mountains nearby"],"sleepingDetails":{"maxCapacity":7,"amountOfBeds":3.5,"extraDetails":"upside-down"},"checkInHourPM":19,"checkOutHourAM":12,"distanceFromCityCenterInKM":8.5,"contactDetails":{"phone":"+18984138431","email":"Ari61@yahoo.com"},"socialMediaLinks":{"fb":"www.facebook.com","instagram":"www.instagram.com","twitter":"www.twitter.com","website":"www.google.com"}},{"id":78,"venuesBasicData":{"id":78,"location":{"streetAddress":"10052 Maurine Grove","city":"South Lillian","postalCode":"42001","country":"Pitcairn Islands"},"pricePerNightInEUR":79.7,"rating":1.7,"capacity":3,"name":"actual cake","albumId":78},"description":"amongst vicinity chase for until whose hydrolyze upright until where before why and squiggly till with yowza zowie dishonor idle quarterly academics upon amidst guide wildly dramatic sew ectoderm gah inasmuch geez unused since mockingly accompanist ah bah funny since till blah bah yellowish why obligation toady ew yowza deselect through passionate aftermath if yahoo save substitution coagulate remark distorted downchange catalyst traffic happily subtract almighty verify respray after waterlogged stage underneath carefully sympathetically after opposite whoever cutlet so battle","features":["kitchen facilities","bathroom facilities","fireplace","hypoallergenic bedding","speakers","TV","WiFi","pet friendly","parking","lake or mountains nearby"],"sleepingDetails":{"maxCapacity":3,"amountOfBeds":1.5,"extraDetails":""},"checkInHourPM":20,"checkOutHourAM":10,"distanceFromCityCenterInKM":0.5,"contactDetails":{"phone":"+15974189470","email":"Ivy80@hotmail.com"},"socialMediaLinks":{"fb":"www.facebook.com","instagram":"www.instagram.com","twitter":"www.twitter.com","website":"www.google.com"}},{"id":79,"venuesBasicData":{"id":79,"location":{"streetAddress":"8692 Roberts Gardens","city":"Fort Adolph","postalCode":"66218-5606","country":"Zambia"},"pricePerNightInEUR":54.26,"rating":0.6,"capacity":9,"name":"impish knitting","albumId":79},"description":"puny monthly and realistic famously vivaciously metal collaborate yowza happy duh ha between scenario gee mmm diver boo duh oh an acceptable furthermore within aggravating during amongst however times that kindly cannibalise statue potentially between er woot respray when fireplace lyre warm besides avalanche drain rosy yuppify gah unlike through as quicker fervently unnaturally nectarine to than usher daughter savour beneath sign save by optimistic where stitcher against consequently bah fondly afford er along till quaintly birdbath brilliant supposing quirkily","features":["kitchen facilities","bathroom facilities","fireplace","hypoallergenic bedding","speakers","TV","WiFi","pet friendly","parking","lake or mountains nearby"],"sleepingDetails":{"maxCapacity":9,"amountOfBeds":4.5,"extraDetails":"warm expostulate obnoxiously beyond"},"checkInHourPM":19,"checkOutHourAM":9,"distanceFromCityCenterInKM":2,"contactDetails":{"phone":"+13416095183","email":"Friedrich_Okuneva48@gmail.com"},"socialMediaLinks":{"fb":"www.facebook.com","instagram":"www.instagram.com","twitter":"www.twitter.com","website":"www.google.com"}},{"id":80,"venuesBasicData":{"id":80,"location":{"streetAddress":"326 Salvador Mountain","city":"Oceanside","postalCode":"92822-1983","country":"Yemen"},"pricePerNightInEUR":71.7,"rating":1.3,"capacity":0,"name":"soggy majority","albumId":80},"description":"conceptualize tennis blissfully whereas um pace decisive rotating unfit while gee correctly bliss woot at provided corporation expatiate round presume thorn advancement sheepishly mobilize solace gosh scale oof carefree upright instead courageously respectful nor yawningly summary inside valuable bah hence lively yuck nice lean unwieldy oof instead instructor that revitalise jealously because onto correctly adaptation boohoo ack kick potentially amnesty railway coaxingly astride gadzooks waterlogged incidentally cavernous how wonderful knowledgeable upside-down disrespect engender throughout provision blindly duh excepting annual amendment","features":["kitchen facilities","bathroom facilities","fireplace","hypoallergenic bedding","speakers","TV","WiFi","pet friendly","parking","lake or mountains nearby"],"sleepingDetails":{"maxCapacity":0,"amountOfBeds":0,"extraDetails":"madly once amidst whereas kielbasa"},"checkInHourPM":15,"checkOutHourAM":9,"distanceFromCityCenterInKM":2.5,"contactDetails":{"phone":"+19373583398","email":"Louie32@yahoo.com"},"socialMediaLinks":{"fb":"www.facebook.com","instagram":"www.instagram.com","twitter":"www.twitter.com","website":"www.google.com"}},{"id":81,"venuesBasicData":{"id":81,"location":{"streetAddress":"32799 Park View","city":"Devonteberg","postalCode":"98101","country":"Angola"},"pricePerNightInEUR":86.39,"rating":2.9,"capacity":6,"name":"entire bob","albumId":81},"description":"at swelter near hence deserted gadzooks funny critical within gee willing offend nor quicker gah ill swing beloved celebrate humor lest vastly blissfully penalise fellow psst unbearably calmly meh circa who geez aw notwithstanding ridge circle aside inquisitively ferociously arrogantly always gah rekindle wherever aha swiftly sharply willing privilege shameful yet reword infatuated graduate unlucky meanwhile inquisitively who boo youthfully barge attest birdcage urgently at the although regularly rudely tenant brr pink psst amazing cheerfully tomorrow markup acclaimed since whoever","features":["kitchen facilities","bathroom facilities","fireplace","hypoallergenic bedding","speakers","TV","WiFi","pet friendly","parking","lake or mountains nearby"],"sleepingDetails":{"maxCapacity":6,"amountOfBeds":3,"extraDetails":""},"checkInHourPM":20,"checkOutHourAM":9,"distanceFromCityCenterInKM":5.5,"contactDetails":{"phone":"+12229859403","email":"Otis.Leannon@yahoo.com"},"socialMediaLinks":{"fb":"www.facebook.com","instagram":"www.instagram.com","twitter":"www.twitter.com","website":"www.google.com"}},{"id":82,"venuesBasicData":{"id":82,"location":{"streetAddress":"44133 Brekke Turnpike","city":"East Betsy","postalCode":"64187-1881","country":"Algeria"},"pricePerNightInEUR":28.57,"rating":0.8,"capacity":6,"name":"triangular seafood","albumId":82},"description":"acidly boo oddly hot during meanwhile supposing menacing than when sweetly quixotic ew sham beep drat finally correctly circular carelessly an through bell yet yowza provided mould into unnaturally electric aboard inveigle unto wholly soon heavy unto roughly ride hepatitis phooey personal which blindly internalize wonderfully unless uh-huh inasmuch overload phrase unwilling utterly whoa atrium deselect apud idolized cheap libel uh-huh furthermore since certification huzzah clear-cut miserably pharmacopoeia noisily phew alongside oof dock why expense towards stable incomplete airbus how","features":["kitchen facilities","bathroom facilities","fireplace","hypoallergenic bedding","speakers","TV","WiFi","pet friendly","parking","lake or mountains nearby"],"sleepingDetails":{"maxCapacity":6,"amountOfBeds":3,"extraDetails":"pish ashamed lift"},"checkInHourPM":19,"checkOutHourAM":9,"distanceFromCityCenterInKM":8,"contactDetails":{"phone":"+19669752548","email":"Russell_Lynch@gmail.com"},"socialMediaLinks":{"fb":"www.facebook.com","instagram":"www.instagram.com","twitter":"www.twitter.com","website":"www.google.com"}},{"id":83,"venuesBasicData":{"id":83,"location":{"streetAddress":"9233 York Street","city":"West Fredrickhaven","postalCode":"76831","country":"Niger"},"pricePerNightInEUR":52.99,"rating":4.5,"capacity":1,"name":"poor abacus","albumId":83},"description":"inside truthfully daily epic exaggerate hunger cow brr wherever provided enrage grave boulevard grimy till speedily mealy uh-huh scarily blaring optimistically supposing both sternly incinerate curl cricket topsail astride until now where chunder righteously why ah yuck triumphantly scarification greedily underneath whoa upbeat incomparable pro old whenever exonerate for incandescence yowza however reboot backbone near poorly filthy er mysteriously trouser around optimal or glider attest well-groomed ugh certainly upright essay reluctantly unfit lest scary anxiously to spanish knife sour behind","features":["kitchen facilities","bathroom facilities","fireplace","hypoallergenic bedding","speakers","TV","WiFi","pet friendly","parking","lake or mountains nearby"],"sleepingDetails":{"maxCapacity":1,"amountOfBeds":0.5,"extraDetails":""},"checkInHourPM":17,"checkOutHourAM":11,"distanceFromCityCenterInKM":7,"contactDetails":{"phone":"+13264883949","email":"Ralph.Simonis59@yahoo.com"},"socialMediaLinks":{"fb":"www.facebook.com","instagram":"www.instagram.com","twitter":"www.twitter.com","website":"www.google.com"}},{"id":84,"venuesBasicData":{"id":84,"location":{"streetAddress":"8716 Commercial Road","city":"New Aliyahmouth","postalCode":"37685","country":"Pitcairn Islands"},"pricePerNightInEUR":58.05,"rating":4.1,"capacity":9,"name":"definite skyscraper","albumId":84},"description":"linear yowza enthusiastically calculus geez insistent like ditch whereas toe timely coincide freely until exhaust state ample deed wallaby amnesty given ew fatally forenenst upon geez typeface sometimes upon obediently where if whereas meh sashay motor along crossly duh yesterday amongst peppery sticky against bar rough but exacerbate attest shameless rusty even amongst inasmuch er consequently worth beside rag rundown fit although writ after disadvantage bar whereas disappointment solvency gleefully rosy revoke up circumnavigate insert pause lest surface beside although","features":["kitchen facilities","bathroom facilities","fireplace","hypoallergenic bedding","speakers","TV","WiFi","pet friendly","parking","lake or mountains nearby"],"sleepingDetails":{"maxCapacity":9,"amountOfBeds":4.5,"extraDetails":"afraid aw sit joyfully until"},"checkInHourPM":20,"checkOutHourAM":9,"distanceFromCityCenterInKM":9.5,"contactDetails":{"phone":"+15268887473","email":"Deanna.Rau20@hotmail.com"},"socialMediaLinks":{"fb":"www.facebook.com","instagram":"www.instagram.com","twitter":"www.twitter.com","website":"www.google.com"}},{"id":85,"venuesBasicData":{"id":85,"location":{"streetAddress":"2524 Kade Shores","city":"O'Keefechester","postalCode":"83287-1944","country":"Mauritania"},"pricePerNightInEUR":17.64,"rating":4.3,"capacity":8,"name":"dense boyfriend","albumId":85},"description":"aha sharply indeed ugh mmm shyly unique concerning colligate gadzooks plump deduction longingly stool from hmph pfft slather hepatitis unethically loosely neighboring squid role sleepily following explode hm with hence gah competent tall hawk meanwhile wrathful corrupt injunction tenderly rekindle famously travel sternly sparkling brr meager seemingly haunting deprave spherical intensely orchestrate gosh interestingly ambitious butter viciously unkempt coagulate pish hmph deer upliftingly fooey forage underneath dreamily anguished annex weep whale variable ruddy medium delightfully expatiate knowledgeably as kiddingly peninsula","features":["kitchen facilities","bathroom facilities","fireplace","hypoallergenic bedding","speakers","TV","WiFi","pet friendly","parking","lake or mountains nearby"],"sleepingDetails":{"maxCapacity":8,"amountOfBeds":4,"extraDetails":"intensely fragrant instance annually tomatillo"},"checkInHourPM":22,"checkOutHourAM":10,"distanceFromCityCenterInKM":2,"contactDetails":{"phone":"+17505327201","email":"Emelie11@hotmail.com"},"socialMediaLinks":{"fb":"www.facebook.com","instagram":"www.instagram.com","twitter":"www.twitter.com","website":"www.google.com"}},{"id":86,"venuesBasicData":{"id":86,"location":{"streetAddress":"9735 Muriel Common","city":"Fredaland","postalCode":"65677-5602","country":"Norway"},"pricePerNightInEUR":92.67,"rating":1.8,"capacity":6,"name":"wonderful starboard","albumId":86},"description":"haversack or until er tense as calmly think that loudly yowza lift pish rightfully stigmatize duster saw concrete bossy dreamily pronoun er yawningly gadzooks while reach oh brr polite broken vain impressionable inasmuch despite exactly relaunch teammate truly scruple meanwhile certify bleakly warmly idealistic made-up culture where enraged microchip intently masterpiece sadly noted swathe overcooked ew wearily knife nor madly as release once closely hungrily unearth confirm gnaw why dreamily psst enormously zowie forenenst now slide anguished heroine gosh whereas","features":["kitchen facilities","bathroom facilities","fireplace","hypoallergenic bedding","speakers","TV","WiFi","pet friendly","parking","lake or mountains nearby"],"sleepingDetails":{"maxCapacity":6,"amountOfBeds":3,"extraDetails":"uneven gosh wildly"},"checkInHourPM":17,"checkOutHourAM":11,"distanceFromCityCenterInKM":7,"contactDetails":{"phone":"+12412211916","email":"Lynn_Denesik@gmail.com"},"socialMediaLinks":{"fb":"www.facebook.com","instagram":"www.instagram.com","twitter":"www.twitter.com","website":"www.google.com"}},{"id":87,"venuesBasicData":{"id":87,"location":{"streetAddress":"92532 Springfield Road","city":"West Susanna","postalCode":"36444-0779","country":"Azerbaijan"},"pricePerNightInEUR":39.71,"rating":2.3,"capacity":5,"name":"unwieldy stitcher","albumId":87},"description":"oh huzzah rebel similar phooey chainstay focused unfortunately please for minor only valley bowler minus mmm gah infatuated provided athwart saw questionably meanwhile who hydrant now whether subtle wear experienced superficial institute once badly limping license incline cheerfully vivaciously meager major abscond yowza furthermore only rich certainly hunt stuff conclude separately about nor greedily through lest likewise till orange forenenst dandelion border palate minus dream camouflage on joyfully mostly jazz certainly airbrush lively unto maintainer bah alongside bah brr duh","features":["kitchen facilities","bathroom facilities","fireplace","hypoallergenic bedding","speakers","TV","WiFi","pet friendly","parking","lake or mountains nearby"],"sleepingDetails":{"maxCapacity":5,"amountOfBeds":2.5,"extraDetails":"watery softly ew heavy cumbersome"},"checkInHourPM":19,"checkOutHourAM":12,"distanceFromCityCenterInKM":2.5,"contactDetails":{"phone":"+13293594981","email":"Madisen_Torp@yahoo.com"},"socialMediaLinks":{"fb":"www.facebook.com","instagram":"www.instagram.com","twitter":"www.twitter.com","website":"www.google.com"}},{"id":88,"venuesBasicData":{"id":88,"location":{"streetAddress":"74774 Chester Walks","city":"Union City","postalCode":"10831-1196","country":"Ecuador"},"pricePerNightInEUR":88.29,"rating":0.8,"capacity":9,"name":"tempting curl","albumId":88},"description":"aha for what vainly fortunately mozzarella decriminalize colonialism yahoo minority flawed lined ah madly median grounded sequester consistency furthermore underneath fork crocodile likely oh upon crossly pace wriggler intervention whenever briskly collaboration mechanically quirkily for vainly with whose fraternise given claw formal since legging athwart unknown cruelty acknowledge only why westernize below wherever now finally why yuck deeply mainstream truthfully yesterday towards needily duh deprave uh-huh object around underplay extremely amidst victorious bicycle why for very however correctly cook snow","features":["kitchen facilities","bathroom facilities","fireplace","hypoallergenic bedding","speakers","TV","WiFi","pet friendly","parking","lake or mountains nearby"],"sleepingDetails":{"maxCapacity":9,"amountOfBeds":4.5,"extraDetails":"incidentally"},"checkInHourPM":22,"checkOutHourAM":11,"distanceFromCityCenterInKM":3,"contactDetails":{"phone":"+14972164739","email":"Lavina71@yahoo.com"},"socialMediaLinks":{"fb":"www.facebook.com","instagram":"www.instagram.com","twitter":"www.twitter.com","website":"www.google.com"}},{"id":89,"venuesBasicData":{"id":89,"location":{"streetAddress":"809 Elton Pines","city":"New Curt","postalCode":"89644-2054","country":"Brazil"},"pricePerNightInEUR":28.39,"rating":3.7,"capacity":2,"name":"descriptive hyphenation","albumId":89},"description":"marketplace as boo pish saw manner creator likewise helpfully eke um jaunty whose manipulate glaring above sweet intensely absentmindedly bell tennis how along pish plus habit sun incidentally mystify scratch magnificent bus boom unique whoa swathe task very lively pause claw kissingly jam-packed steeple the pfft smarten unabashedly after foolish defendant amid knottily neaten usefully dock celebrate leading partially generally negative busily stylish modulo lucky readily pack yum once youthfully blissfully pendant as as however ouch manipulate inasmuch regarding understanding","features":["kitchen facilities","bathroom facilities","fireplace","hypoallergenic bedding","speakers","TV","WiFi","pet friendly","parking","lake or mountains nearby"],"sleepingDetails":{"maxCapacity":2,"amountOfBeds":1,"extraDetails":"buck"},"checkInHourPM":21,"checkOutHourAM":11,"distanceFromCityCenterInKM":2.5,"contactDetails":{"phone":"+13039809196","email":"Mariano_Schimmel@hotmail.com"},"socialMediaLinks":{"fb":"www.facebook.com","instagram":"www.instagram.com","twitter":"www.twitter.com","website":"www.google.com"}},{"id":90,"venuesBasicData":{"id":90,"location":{"streetAddress":"98125 Gusikowski Plains","city":"Kansas City","postalCode":"96787-2111","country":"Panama"},"pricePerNightInEUR":39.59,"rating":3.6,"capacity":6,"name":"cloudy devastation","albumId":90},"description":"square finer fooey appliance prioritize adumbrate paintwork tenderly immediately deplore baggy psst swathe truthfully table confused silently except excepting hm granny spectacles zowie cross-contamination reassuringly among major throughout to skyscraper prudent how adrenalin excluding jumbo character for loyally live jellyfish dependable ah lightly lecture cripple svelte ridge whoever vanadyl inside pinion ragged rubbery regularly quarrelsomely as overwork for alert acclaimed affiliate accentuate whether aha whenever exonerate until apropos furthermore bah though ack sock since only leading imaginative flu quizzically in","features":["kitchen facilities","bathroom facilities","fireplace","hypoallergenic bedding","speakers","TV","WiFi","pet friendly","parking","lake or mountains nearby"],"sleepingDetails":{"maxCapacity":6,"amountOfBeds":3,"extraDetails":"the afore vanish joyously analogy"},"checkInHourPM":19,"checkOutHourAM":11,"distanceFromCityCenterInKM":0,"contactDetails":{"phone":"+18368302352","email":"Nelda.Bode@gmail.com"},"socialMediaLinks":{"fb":"www.facebook.com","instagram":"www.instagram.com","twitter":"www.twitter.com","website":"www.google.com"}},{"id":91,"venuesBasicData":{"id":91,"location":{"streetAddress":"6855 Consuelo Skyway","city":"Arielport","postalCode":"41979","country":"Latvia"},"pricePerNightInEUR":37.81,"rating":1.9,"capacity":9,"name":"rotating surface","albumId":91},"description":"swift well-off versus penalise climb fidget next as woot puritan given tinted loyally meh gracefully courageous round a inasmuch what leap mmm verve from where as near imagineer fooey eek rough libel because pantyhose juicy definitive um minor stable the drat meh overcook lean till hm when even tepid barracks hastily meh admired what among buttery confusion underneath joshingly overconfidently deeply while vanish plus lobotomise over dish times and rise yieldingly stage save submissive nucleotidase admonish even sidetrack yuck which","features":["kitchen facilities","bathroom facilities","fireplace","hypoallergenic bedding","speakers","TV","WiFi","pet friendly","parking","lake or mountains nearby"],"sleepingDetails":{"maxCapacity":9,"amountOfBeds":4.5,"extraDetails":""},"checkInHourPM":21,"checkOutHourAM":12,"distanceFromCityCenterInKM":8,"contactDetails":{"phone":"+16105098667","email":"Adrienne.Walsh@gmail.com"},"socialMediaLinks":{"fb":"www.facebook.com","instagram":"www.instagram.com","twitter":"www.twitter.com","website":"www.google.com"}},{"id":92,"venuesBasicData":{"id":92,"location":{"streetAddress":"99714 Lime Grove","city":"Homestead","postalCode":"35363","country":"Zimbabwe"},"pricePerNightInEUR":70.25,"rating":4.1,"capacity":3,"name":"cautious zebra","albumId":92},"description":"nervous graceful pish filthy against before pile live politely slushy perp boo tail minus dandelion indeed wordy vacantly obesity bruised hefty swiftly morbidity gee forenenst concerning yet hence jazz obtrude silver that but questionable eek astride spice vice round oh annex weep livid bonnet for stitcher greedily cautiously floodlight finally custom formamide sundae ick probe pro fly what dereference accidentally whoever maul blah skateboard wherever unbearably upon demobilise tabulate language woot ouch authorized tall reborn awesome oh chops uselessly overheard","features":["kitchen facilities","bathroom facilities","fireplace","hypoallergenic bedding","speakers","TV","WiFi","pet friendly","parking","lake or mountains nearby"],"sleepingDetails":{"maxCapacity":3,"amountOfBeds":1.5,"extraDetails":"weakly meh"},"checkInHourPM":19,"checkOutHourAM":9,"distanceFromCityCenterInKM":0.5,"contactDetails":{"phone":"+19874984434","email":"Nia95@gmail.com"},"socialMediaLinks":{"fb":"www.facebook.com","instagram":"www.instagram.com","twitter":"www.twitter.com","website":"www.google.com"}},{"id":93,"venuesBasicData":{"id":93,"location":{"streetAddress":"824 Hansen Viaduct","city":"West Thomasfort","postalCode":"92786-5286","country":"Bulgaria"},"pricePerNightInEUR":60.43,"rating":1.8,"capacity":4,"name":"sick thorn","albumId":93},"description":"whether arrogantly fiercely arbitrate ouch darling issue intervention floodlight soon armoire sunbathe briefly yuck left when of ick blah about guide tooth disappointment of aw um before downshift finally wildly phooey obediently knit positively dissemble fatally account limply since nor newsprint finally save so duh beyond victoriously unless very switch indeed decryption croon awareness especially whoa thigh ha voluntarily well-lit along growing waist greedily waterspout into whether knit gut afore hubris of median excepting among with vice spiteful whole sinful","features":["kitchen facilities","bathroom facilities","fireplace","hypoallergenic bedding","speakers","TV","WiFi","pet friendly","parking","lake or mountains nearby"],"sleepingDetails":{"maxCapacity":4,"amountOfBeds":2,"extraDetails":"towards psst seriously coaxingly"},"checkInHourPM":15,"checkOutHourAM":12,"distanceFromCityCenterInKM":2.5,"contactDetails":{"phone":"+18556719701","email":"Roy_Rath36@hotmail.com"},"socialMediaLinks":{"fb":"www.facebook.com","instagram":"www.instagram.com","twitter":"www.twitter.com","website":"www.google.com"}},{"id":94,"venuesBasicData":{"id":94,"location":{"streetAddress":"9704 Margot Mission","city":"Shadfurt","postalCode":"21367-6785","country":"United Kingdom"},"pricePerNightInEUR":27.38,"rating":2.9,"capacity":1,"name":"hungry backburn","albumId":94},"description":"step whoever finally ha rigidly championship swine prestigious loftily sweetly boggle scamper dependency more that yippee soon scuffle quarrelsome dereference likewise worth successfully another hunger intellect hungrily earnest velvety sleepy memorable and hm yippee fund pendant yet yowza beside abaft unnaturally programme pish even badly blossom netsuke with pace longingly overwork yet turret taut low warmly shirk loudly consign following blah in uh-huh enormously sometimes till when wherever underneath beautifully now investigate manipulate whoa display spark pish priesthood but unbearably","features":["kitchen facilities","bathroom facilities","fireplace","hypoallergenic bedding","speakers","TV","WiFi","pet friendly","parking","lake or mountains nearby"],"sleepingDetails":{"maxCapacity":1,"amountOfBeds":0.5,"extraDetails":"newsletter before curl"},"checkInHourPM":21,"checkOutHourAM":12,"distanceFromCityCenterInKM":3.5,"contactDetails":{"phone":"+18234207565","email":"Lourdes_Cummings@gmail.com"},"socialMediaLinks":{"fb":"www.facebook.com","instagram":"www.instagram.com","twitter":"www.twitter.com","website":"www.google.com"}},{"id":95,"venuesBasicData":{"id":95,"location":{"streetAddress":"130 Castle Road","city":"Boehmland","postalCode":"44597-7126","country":"Vanuatu"},"pricePerNightInEUR":76.29,"rating":2.1,"capacity":1,"name":"scary barge","albumId":95},"description":"yahoo er oof and wisely redesign for tender accessorise design glass apparatus pitiful red lazily pace ugh easy towards frenetically until longingly crest illiterate fast though frequent before meanwhile tightly surprisingly amid jaywalk gadzooks despite react cork silently pertain helpless vice marketplace sin negotiation afraid pish colorfully corny mmm grouper the shoulder through train unimpressively provided weakly unknown fast ugh amid owlishly knowledgeably toe anti around upon orchid never except self-confidence when precious whitewash shakily lawful fibre uh-huh yet replicate","features":["kitchen facilities","bathroom facilities","fireplace","hypoallergenic bedding","speakers","TV","WiFi","pet friendly","parking","lake or mountains nearby"],"sleepingDetails":{"maxCapacity":1,"amountOfBeds":0.5,"extraDetails":"dishonor scent yuck across"},"checkInHourPM":19,"checkOutHourAM":12,"distanceFromCityCenterInKM":1,"contactDetails":{"phone":"+16536105401","email":"Carrie85@gmail.com"},"socialMediaLinks":{"fb":"www.facebook.com","instagram":"www.instagram.com","twitter":"www.twitter.com","website":"www.google.com"}},{"id":96,"venuesBasicData":{"id":96,"location":{"streetAddress":"93770 Hertha Heights","city":"Greenville","postalCode":"02768","country":"Niue"},"pricePerNightInEUR":59.85,"rating":0.4,"capacity":5,"name":"tasty remark","albumId":96},"description":"whereas patroller parsnip bid meanwhile but psst well-lit certify phooey truthfully but gah because the softly wearily which cheerfully soybean makeover provided baptise smoggy and properly noisily ack psst now aggravating yippee minus unnaturally absent manner tempting bah present livid once gestate why faithfully councilman dulcimer judicious since of permafrost if table sans wherever unripe new minority promptly eek or gadzooks lest badly some finding where question minister corral including bare quarrel ah for favorable whose unlined potentially whether whoa","features":["kitchen facilities","bathroom facilities","fireplace","hypoallergenic bedding","speakers","TV","WiFi","pet friendly","parking","lake or mountains nearby"],"sleepingDetails":{"maxCapacity":5,"amountOfBeds":2.5,"extraDetails":""},"checkInHourPM":16,"checkOutHourAM":12,"distanceFromCityCenterInKM":3,"contactDetails":{"phone":"+13532996353","email":"Elisa.Dickens@hotmail.com"},"socialMediaLinks":{"fb":"www.facebook.com","instagram":"www.instagram.com","twitter":"www.twitter.com","website":"www.google.com"}},{"id":97,"venuesBasicData":{"id":97,"location":{"streetAddress":"301 Heather Close","city":"Cartershire","postalCode":"34647-4833","country":"Puerto Rico"},"pricePerNightInEUR":85.69,"rating":2.1,"capacity":0,"name":"unlucky tributary","albumId":97},"description":"reflate cruelly er gah insist finally loudly awkwardly oof skateboard mysteriously giggle barring gaseous abaft ick although ha oh complicated undergo unconscious even up mid bookend bend cautious since ah ah above instead fortunately down near calmly whimsical surprisingly excitable sport so rot er qua however whoever gah carelessly via ugh glider triumphantly whoa whose politely supposing unlike worth excepting impostor unnaturally huzzah cloudy curry orange than lawful humiliating downright softly daughter saloon density hunger tributary plus coexist while sugary","features":["kitchen facilities","bathroom facilities","fireplace","hypoallergenic bedding","speakers","TV","WiFi","pet friendly","parking","lake or mountains nearby"],"sleepingDetails":{"maxCapacity":0,"amountOfBeds":0,"extraDetails":"intermarry beautifully across revoke"},"checkInHourPM":22,"checkOutHourAM":9,"distanceFromCityCenterInKM":3.5,"contactDetails":{"phone":"+17116951629","email":"Una23@hotmail.com"},"socialMediaLinks":{"fb":"www.facebook.com","instagram":"www.instagram.com","twitter":"www.twitter.com","website":"www.google.com"}},{"id":98,"venuesBasicData":{"id":98,"location":{"streetAddress":"927 Volkman Villages","city":"South Destin","postalCode":"96210-1727","country":"Tunisia"},"pricePerNightInEUR":85.95,"rating":4.6,"capacity":5,"name":"monthly testimonial","albumId":98},"description":"blah clear evil brr reconsideration receptor finally brr insidious sparse circumnavigate these revitalise across gym before since per haul freely astonishing yet since saloon nautical huge someplace truly cap whether enthusiastically exhausted distorted airman productive after aha duh trust provided feline jealously bitterly mechanically wavy given fat extract excitable splosh towards flu doorpost ultimately times scheme likewise interestingly jubilant digitize youthfully equally hopeful intently um whoever feminize waist failing failing psst like foolishly pecan better quicker emerge boohoo spiffy whenever","features":["kitchen facilities","bathroom facilities","fireplace","hypoallergenic bedding","speakers","TV","WiFi","pet friendly","parking","lake or mountains nearby"],"sleepingDetails":{"maxCapacity":5,"amountOfBeds":2.5,"extraDetails":"access ick whoever"},"checkInHourPM":22,"checkOutHourAM":10,"distanceFromCityCenterInKM":3,"contactDetails":{"phone":"+14394339934","email":"Carolyn.Brakus@gmail.com"},"socialMediaLinks":{"fb":"www.facebook.com","instagram":"www.instagram.com","twitter":"www.twitter.com","website":"www.google.com"}},{"id":99,"venuesBasicData":{"id":99,"location":{"streetAddress":"89684 Witting Valleys","city":"Streichtown","postalCode":"39579","country":"Sao Tome and Principe"},"pricePerNightInEUR":53.76,"rating":2.9,"capacity":6,"name":"urban captain","albumId":99},"description":"freely under thin whether sans handy truly inquisitively um whoa steel or by diligently lest drat like courteous ouch boastfully wherever helplessly curiously bah embarrassment hateful stale ugh remand ew furthermore unit yahoo object ouch factorise yuck optimistic mid yahoo sadly gladly supposing yum ugh before hunger bouncy incinerate how at kowtow iridescence uh-huh remark instead meh hm next litter ironclad minister skeletal apropos circa store innocently accompany hype testify shred or selfishly yet drat though below account mash generally","features":["kitchen facilities","bathroom facilities","fireplace","hypoallergenic bedding","speakers","TV","WiFi","pet friendly","parking","lake or mountains nearby"],"sleepingDetails":{"maxCapacity":6,"amountOfBeds":3,"extraDetails":"under tasty inspection"},"checkInHourPM":18,"checkOutHourAM":9,"distanceFromCityCenterInKM":4.5,"contactDetails":{"phone":"+16313842069","email":"Brendon_Bayer@yahoo.com"},"socialMediaLinks":{"fb":"www.facebook.com","instagram":"www.instagram.com","twitter":"www.twitter.com","website":"www.google.com"}}]}